city,latitude,longitude,country,population
Shanghai,31.222222,121.458056,China,14987000.0
Beijing,39.928819,116.388869,China,11106000.0
Guangzhou,23.116667,113.25,China,8829000.0
Shenzhen,22.533333,114.13333300000001,China,7581000.0
Wuhan,30.583333000000003,114.266667,China,7243000.0
Tianjin,39.142222,117.176667,China,7180000.0
Chongqing,29.562778,106.552778,China,6461000.0
Shenyang,41.792221999999995,123.432778,China,4787000.0
Dongguan,23.048889000000003,113.744722,China,4528000.0
Chengdu,30.666666999999997,104.06666700000001,China,4123000.0
Lianhu,34.258479,108.924205,China,4009000.0
Hechi,23.0027,109.84,China,3830000.0
Nanjing,32.061667,118.777778,China,3679000.0
Guiyang,26.583333000000003,106.71666699999999,China,3662000.0
Harbin,45.75,126.65,China,3621000.0
Zhangzhou,24.513333,117.655556,China,3531147.0
Changchun,43.88,125.322778,China,3183000.0
Dalian,38.912222,121.602222,China,3167000.0
Zibo,36.790556,118.06333300000001,China,3061000.0
Hangzhou,30.29365,120.161419,China,3007000.0
Kunming,25.038889,102.718333,China,2931000.0
Taiyuan,37.869444,112.560278,China,2913000.0
Qingdao,36.066049,120.36939299999999,China,2866000.0
Jinan,36.668333000000004,116.997222,China,2798000.0
Zhengzhou,34.683611,113.5325,China,2636000.0
Fuzhou,26.061389000000002,119.30611100000002,China,2606000.0
Changsha,28.2,112.96666699999999,China,2604000.0
Xiangtandong,27.866667,112.933333,China,2586948.0
Lanzhou,36.057006,103.83986800000001,China,2561000.0
Xiamen,24.479794000000002,118.081869,China,2519000.0
Jinjiao,40.743394,120.816702,China,2426000.0
Shijiazhuang,38.041389,114.47861100000001,China,2417000.0
Jilin,43.850833,126.560278,China,2396000.0
Wenzhou,27.999415999999997,120.66682,China,2350000.0
Nanchangshi,28.655758000000002,115.905049,China,2350000.0
Nanchong,30.795075,106.08473500000001,China,2174000.0
Nanning,22.816667000000002,108.316667,China,2167000.0
Ürümqi,43.807347,87.63050600000001,China,2151000.0
Daguozhuangcun,34.906549,117.60353,China,2145000.0
Yantai,37.533333,121.4,China,2116000.0
Linyi,35.063056,118.34277800000001,China,2082000.0
Haikou,20.045833,110.34166699999999,China,2046189.0
Baotou,40.652221999999995,109.822222,China,2036000.0
Hefei,31.863889,117.280833,China,2035000.0
Suzhou,33.636111,116.978889,China,1964000.0
Lanzhuang,32.980022,112.49505900000001,China,1944000.0
Ningbo,29.878186,121.549453,China,1923000.0
Tangshan,39.633333,118.183333,China,1879000.0
Datong,40.093610999999996,113.291389,China,1873000.0
Shucheng,34.121282,118.78078300000001,China,1770000.0
Shangqiu,34.45,115.65,China,1753000.0
Wuxi,31.568872999999996,120.288573,China,1749000.0
Hohhot,40.810556,111.652222,China,1726000.0
Luoyang,34.683611,112.45361100000001,China,1715000.0
Daqing,46.583333,125.0,China,1693000.0
Lu’an,31.756944,116.49138899999998,China,1690000.0
Wanxian,30.815439,108.37089099999999,China,1680000.0
Suzhou,31.304077000000003,120.59538,China,1650000.0
Qiqihar,47.34088,123.960448,China,1641000.0
Anshan,41.123611,122.99,China,1639000.0
Handan,36.600556,114.46777800000001,China,1631000.0
Tai’an,36.185278000000004,117.12,China,1629000.0
Shantou,23.36814,116.71479,China,1601000.0
Zhanjiang,21.281451999999998,110.34271299999999,China,1590000.0
Xiantao,30.383333,113.4,China,1556000.0
Weifang,36.71,119.10194399999999,China,1553000.0
Xinyang,32.122778000000004,114.065556,China,1541000.0
Luzhou,28.872390999999997,105.44049,China,1537000.0
Tantou,25.9559,114.93799999999999,China,1500000.0
Liuzhou,24.312582,109.38915700000001,China,1497000.0
Fushun,41.855833000000004,123.92333300000001,China,1470000.0
Changde,29.167407,111.70768799999999,China,1469000.0
Neijiang,29.583536,105.06216,China,1466000.0
Quanzhou,24.913889,118.58583300000001,China,1463000.0
Huainan,32.626389,116.996944,China,1451000.0
Suining,30.508017,105.573324,China,1425000.0
Mianyang,31.459339,104.754235,China,1396000.0
Huashan,31.701453000000004,118.495632,China,1366302.0
Yiyang,28.589167,112.328333,China,1352000.0
Heze,35.239289,115.473578,China,1338000.0
Zhangshu,31.805735,120.005059,China,1327000.0
Chifeng,42.268333,118.96361100000001,China,1277000.0
Huaiyin,33.588611,119.019167,China,1264000.0
Mudanjiang,44.583333,129.6,China,1244000.0
Huzhou,30.870301,120.09329699999999,China,1231000.0
Maoling,21.891112,110.84503000000001,China,1217715.0
Jining,35.405,116.58138899999999,China,1186000.0
Leshan,29.562275,103.76386,China,1157000.0
Shangrao,28.453221000000003,117.968604,China,1144577.0
Yuzhi,22.6089,110.11399999999999,China,1127000.0
Xianyangshi,34.346334999999996,108.71816399999999,China,1126000.0
Baoding,38.851110999999996,115.490278,China,1107000.0
Zigong,29.341621999999997,104.776887,China,1105000.0
Ankang,32.68,109.017222,China,1100000.0
Jinhua,29.106782,119.64420700000001,China,1092852.0
Zhuzhou,27.833333000000003,113.15,China,1080000.0
Xiangyang,32.042203,112.14479399999999,China,1069000.0
Xining,36.625541,101.75739,China,1048000.0
Zhangjiakou,40.81,114.87944399999999,China,1046000.0
Zhuhai,22.276944,113.567778,China,1023000.0
Jiamusi,46.799271999999995,130.316328,China,1020000.0
Hengyang,26.888056,112.615,China,1016000.0
Benxi,41.288610999999996,123.765,China,1012000.0
Tiezhuang,39.947966,119.57153899999999,China,1003000.0
Yaowan,25.1067,99.1515,China,1000000.0
Yinchuan,38.468056,106.27305600000001,China,991000.0
Jiaxing,30.752197999999996,120.749997,China,988000.0
Guilin,25.281944,110.28638899999999,China,987000.0
Yichun,27.833333000000003,114.4,China,982000.0
Dayangquan,37.846236,113.56541499999999,China,981448.0
Jixi,45.301095000000004,130.957181,China,965000.0
Xigui,34.4065,118.34100000000001,China,962656.0
Pingxiang,27.616721999999996,113.853527,China,961000.0
Jinzhou,41.107778,121.141667,China,956000.0
Nantong,32.030278,120.87472199999999,China,947000.0
Foshan,23.026771,113.131483,China,943000.0
Xinyu,27.839063,114.845909,China,913000.0
Huaibei,33.974444,116.79166699999999,China,913000.0
Yibin,28.766666999999998,104.623832,China,902000.0
Xiaobengbu,32.95,117.33333300000001,China,894000.0
Tongliao,43.6125,122.26527800000001,China,884000.0
Yangjiang,21.855635,111.962724,China,872363.0
Dandong,40.129166999999995,124.394722,China,870000.0
Xuanzhou,30.9525,118.755278,China,866000.0
Rizhao,35.4275,119.455278,China,865000.0
Jiaozuo,35.239722,113.233056,China,857000.0
Zhenjiang,32.210863,119.455076,China,854000.0
Anshun,26.25,105.933333,China,849000.0
Zunyi,27.686667,106.90722199999999,China,849000.0
Jingshan,33.699317,113.321308,China,849000.0
Yuci,37.680278,112.731944,China,840000.0
Yuanzhuang,33.417761,120.103747,China,839000.0
Linfen,36.088889,111.51888899999999,China,834000.0
Heiyutang,29.342354999999998,113.075988,China,826000.0
Xingyi,25.05,104.983333,China,816000.0
Langfang,39.509722,116.694722,China,810000.0
Wuhubei,31.35,118.33333300000001,China,810000.0
Shuibatang,27.3292,103.74700000000001,China,809000.0
Lingyuan,41.24,119.40111100000001,China,806000.0
Baojishi,34.372458,107.16449899999999,China,800000.0
Yingkou,40.664823,122.228329,China,795000.0
Liaoyang,41.271944,123.173056,China,794000.0
Yichun,47.724635,128.82388500000002,China,777000.0
Shaoxing,30.011019,120.571528,China,777000.0
Fuyuan,30.016672999999997,119.94824799999999,China,771000.0
Fuxin,42.058889,121.745,China,770000.0
Shiyanjie,32.6,110.75,China,770000.0
Jincheng,35.502221999999996,112.832778,China,760000.0
Hegang,47.351176,130.30011499999998,China,743307.0
Beihai,21.483333,109.1,China,728978.0
Shaoguan,24.8,113.58333300000001,China,720266.0
Hanzhuang,34.586132,119.230194,China,715600.0
Qingyuan,23.7,113.03333300000001,China,706717.0
Changzhi,36.183889,113.105278,China,706000.0
Huangshi,30.204172999999997,115.077607,China,688090.0
Huadong,35.6967,114.984,China,666322.0
Changping,40.216116,116.23470800000001,China,614821.0
Taizhou,32.49069,119.908119,China,612356.0
Xingtai,37.063056,114.49416699999999,China,611739.0
Anqing,30.513646,117.047234,China,580497.0
Shihezi,44.302298,86.036938,China,573182.0
Shuozhou,39.315833000000005,112.4225,China,570000.0
Tongling,30.933333,117.816667,China,562832.0
Weihai,37.509136,122.113557,China,560255.0
Siping,43.163333,124.36861100000002,China,555609.0
Sunjialong,29.697889,115.991215,China,545616.0
Kashgar,39.470655,75.989513,China,543914.0
Yangzhou,32.397222,119.435833,China,539715.0
Jiangmen,22.583333,113.08333300000001,China,532419.0
Cangzhou,38.316666999999995,116.86666699999999,China,527681.0
Jiangxia,27.15415,114.97657199999999,China,520248.0
Shashi,30.307221999999996,112.244722,China,520000.0
Liaoyuan,42.903611,125.135833,China,506548.0
Shuangyashan,46.636111,131.153889,China,500000.0
Wuwei,37.926718,102.632018,China,493092.0
Yanji,42.9075,129.507778,China,488740.0
Zhaoqing,23.051157,112.459722,China,480000.0
Jiaojiang,28.680278,121.442778,China,471500.0
Chaoyang,41.570278,120.458611,China,470296.0
Jingdezhen,29.2947,117.20788700000001,China,457298.0
Hengshui,37.732222,115.70111100000001,China,456356.0
Taihe,45.761951,130.85130700000002,China,450617.0
Chengde,40.9725,117.93611100000001,China,449325.0
Xuwan,34.033597,113.865298,China,449258.0
Wuzhou,23.483333,111.316667,China,442315.0
Wanyuan,32.4188,105.863,China,437435.0
Chaozhou,23.665129,116.637864,China,424787.0
Luohe,33.563941,114.042717,China,417356.0
Meizhou,24.297687,116.10724099999999,China,414930.0
Yili,43.9,81.35,China,403489.0
Yuxi,24.355,102.542222,China,396325.0
Baicheng,45.607457000000004,122.82076299999999,China,386861.0
Xichang,27.896421999999998,102.26341500000001,China,379993.0
Dezhou,37.451269,116.31046200000002,China,379555.0
Zhoukou,33.633333,114.63333300000001,China,377061.0
Putian,25.439444,119.010278,China,376558.0
Shache,38.416667,77.24055600000001,China,373492.0
Quzhou,28.959444,118.86861100000002,China,370000.0
Longyan,25.107222,117.0225,China,367896.0
Sanya,18.243056,109.505,China,362689.0
Fuyu,45.183333000000005,124.816667,China,356905.0
Wafangdian,39.618333,122.00805600000001,China,355844.0
Aksu,41.271958000000005,80.240853,China,340020.0
Tieling,42.293056,123.84138899999999,China,340000.0
Shawan,30.006,103.021,China,340000.0
Hanguzhan,39.266667,117.8,China,332793.0
Heyuan,23.733333,114.683333,China,330961.0
Baishan,41.938526,126.419651,China,330000.0
Chenzhou,25.8,113.03333300000001,China,322997.0
Ningde,26.661666999999998,119.522778,China,314077.0
Huizhou,23.083333,114.4,China,289201.0
Tongchuanshi,35.074739,109.084953,China,282258.0
Jining,41.0275,113.105833,China,281716.0
Xinzhou,38.409167,112.733333,China,279607.0
Jinshi,29.604870000000002,111.870116,China,274000.0
Hotan,37.107496999999995,79.935485,China,261730.0
Zhuanghe,39.700833,122.991111,China,261510.0
Turpan,42.947694,89.178862,China,254900.0
Chuxiong,25.036389,101.545556,China,254370.0
Suihua,46.639536,126.99508200000001,China,252245.0
Linhai,28.848146999999997,121.128073,China,251759.0
Laiyang,36.975833,120.71361100000001,China,250000.0
Qinzhou,21.972965,108.62612299999999,China,245376.0
Hebi,35.899167,114.1925,China,244662.0
Ulanhot,46.083333,122.08333300000001,China,241894.0
Xiahuang,28.025440000000003,116.36359099999999,China,241104.0
Shayinshi,29.704411,112.439849,China,231787.0
Zhangye,38.934166999999995,100.451667,China,230728.0
Beipiao,41.791944,120.77916699999999,China,228515.0
Qiantucheng,36.423265,115.99728999999999,China,226930.0
Hancheng,35.460278,110.42916699999999,China,222135.0
Lhasa,29.65,91.1,China,219599.0
Wuhai,39.684422,106.815825,China,218427.0
Nanping,26.645,118.17361100000001,China,213054.0
Sanming,26.248611,117.61861100000002,China,209444.0
Pingliang,35.539167,106.68611100000001,China,207256.0
Korla,41.760546999999995,86.152309,China,206373.0
Jiutai,44.1525,125.832778,China,205399.0
Puqi,29.716666999999998,113.88333300000001,China,205164.0
Liangjiang,24.805556,112.383889,China,203639.0
Huangyan,28.650097,121.26591200000001,China,198713.0
Dunhua,43.3725,128.2425,China,191870.0
Anda,46.40202,125.314536,China,181533.0
Zhanwang,46.047334,125.94245500000001,China,179980.0
Lishui,28.460417,119.91029099999999,China,172777.0
Weinanshi,34.493766,109.49308300000001,China,172321.0
Fuyang,32.9,115.816667,China,170023.0
Simao,22.788626999999998,100.974807,China,162725.0
Xiaoganzhan,30.95,113.933333,China,160437.0
Dali,25.58474,100.212292,China,156685.0
Yulinshi,38.291807,109.737531,China,155960.0
Beian,48.239335,126.504552,China,154936.0
Dongzhugu,38.4758,115.015,China,152934.0
Xishan,23.3597,104.235,China,152388.0
Deyang,31.130191999999997,104.38198100000001,China,152194.0
Jiayuguan,39.793163,98.29767,China,148279.0
Hujiachong,33.106790999999994,107.06020500000001,China,145986.0
Jinchang,38.521128999999995,102.187786,China,144363.0
Altay,47.848641,88.133607,China,142000.0
Jieshou,33.25,115.35,China,141993.0
Congjiatun,44.425063,125.134863,China,141482.0
Dunhuang,40.166667,94.68333299999999,China,140094.0
Zalantun,48.0,122.71666699999999,China,138032.0
Shizuishan,39.233333,106.769444,China,136570.0
Shuangcheng,45.35,126.28333300000001,China,130710.0
Macheng,31.178333000000002,115.031944,China,126366.0
Laiwu,36.192778000000004,117.656944,China,124108.0
Xilin Hot,43.966667,116.03333300000001,China,120965.0
Huanghua,38.368333,117.35138899999998,China,120000.0
Longsheng,27.6644,109.14299999999999,China,118290.0
Huanren,41.264722,125.36666699999999,China,116621.0
Yakeshi,49.283333,120.733333,China,116284.0
Binzhou,37.366667,118.016667,China,115893.0
Zhijiang,27.458139000000003,109.659196,China,113907.0
Shaowu,27.340891,117.483096,China,112585.0
Kuqa,41.727778,82.936389,China,111499.0
Hailun,47.4565,126.953678,China,109881.0
Dali,34.795863,109.938948,China,109696.0
Tieli,46.980428,128.044975,China,109636.0
Heihe,50.250979,127.4773,China,109427.0
Karamay,45.598587,84.865461,China,108769.0
Nehe,48.483333,124.83333300000001,China,108253.0
Golmud,36.406717,94.90060600000001,China,107092.0
Longjiang,47.33072,123.17816,China,106384.0
Qamdo,31.143107,97.176301,China,100000.0
Tumen,42.966111,129.8425,China,99721.0
Shangzhi,45.214064,127.97425600000001,China,96980.0
Boli,45.752794,130.572112,China,95260.0
Yishui,35.784721999999995,118.628056,China,94115.0
Manzhouli,49.6,117.433333,China,93620.0
Dalai,45.5,124.3,China,93297.0
Yejiagou,32.498158000000004,111.476276,China,92008.0
Pingdu,36.784444,119.946389,China,91077.0
Fujin,47.26,132.032222,China,89442.0
Wangqing,43.321787,129.76341599999998,China,88732.0
Guangming,25.861795,116.302318,China,87458.0
Mishan,45.543056,131.88222199999998,China,87257.0
Nenjiang,49.174143,125.21773999999999,China,87236.0
Panshi,42.942221999999994,126.05611100000002,China,86216.0
Hedong,42.564032,128.998051,China,85756.0
Linjiang,41.806944,126.90777800000001,China,84315.0
Nangong,37.358056,115.374444,China,82386.0
Koktokay,46.990665,89.523615,China,80000.0
Xigazê,29.25,88.883333,China,80000.0
Shulan,44.416667,126.95,China,78764.0
Pingyi,35.500556,117.63083300000001,China,78254.0
Linkou,45.286057,130.26151000000002,China,77754.0
Jiexiu,37.024444,111.9125,China,77178.0
Tailai,46.389089,123.413715,China,75992.0
Lanxi,46.25785,126.28269099999999,China,72528.0
Keshan,48.066666999999995,125.9,China,72403.0
Anlu,31.2575,113.67833300000001,China,71198.0
Baiquan,47.606047,126.08481200000001,China,70472.0
Liuhe,42.240066,125.717173,China,68938.0
Huinan,42.6225,126.261389,China,66315.0
Qinggang,46.684692,126.105953,China,64182.0
Shangchengjia,28.21749,115.776473,China,61469.0
Langzhong,31.55037,105.99381000000001,China,60542.0
Gannan,47.914722,123.503056,China,59239.0
Suileng,47.248051000000004,127.095348,China,57789.0
Changling,44.265315,124.000452,China,55841.0
Xinqing,48.287012,129.52336699999998,China,55415.0
Ning’an,44.343949,129.465556,China,54636.0
Qing’an,46.877586,127.50053999999999,China,53206.0
Tacheng,46.745346999999995,82.958473,China,49796.0
Yanshan,24.4902,108.64299999999999,China,47062.0
Chongyang,27.041110999999997,111.168333,China,45617.0
Hulin,45.768611,132.992222,China,42559.0
Oroqen Zizhiqi,50.566666999999995,123.71666699999999,China,40128.0
Yi’an,47.889005,125.303923,China,39924.0
Pingxiang,22.096944,106.756667,China,31109.0
Wuyuan,41.089166999999996,108.272222,China,30057.0
Tonghua,41.719722,125.92638899999999,China,27227.0
Lianwang,26.8527,100.26100000000001,China,18445.0
Bugt,48.783333,121.933333,China,17457.0
Gyangzê,28.920263000000002,89.599556,China,10000.0
Gar,32.119409999999995,80.056099,China,10000.0
Kailu,43.583333,121.2,China,2809.0
Nagqu,31.476776,92.057291,China,2500.0
Fulin,29.347922999999998,102.681881,China,1049.0
Linxi,43.516667,118.03333300000001,China,679.0
Dunhou,27.05,114.9,China,
Laojie,25.448286,99.556102,China,
Mengshan,24.214055,110.517751,China,
Zhongcheng,28.309540000000002,105.230751,China,
Kaiwen,27.156102,99.83483299999999,China,
Kaitong,44.813513,123.149999,China,
Fengzhou,36.842778,112.85416699999999,China,
Chengwu,34.954066,115.884188,China,
Yongning,28.524488,114.365765,China,
Fengcheng,24.571172,107.042432,China,
Zhongba,31.778190999999996,104.739315,China,
Tangyuan,46.726422,129.89965700000002,China,
Longquan,40.363801,113.66616,China,
Fenglu,24.676522,102.911293,China,
Shule,39.402313,76.050804,China,
Yancheng,29.743574,103.566793,China,
Jiaji,19.2425,110.46416699999999,China,
Tafeng,25.354070999999998,112.189866,China,
Lhozhag,28.389965000000004,90.859813,China,
Huangjingba,28.013625,103.99855,China,
Tangxing,35.74521,111.69872099999999,China,
Jinhua,26.537999,99.91715,China,
Fengcheng,35.492199,112.40428100000001,China,
Longquan,39.084457,112.191193,China,
Chuqung,33.366667,97.133333,China,
Wenhua,37.391063,121.58958799999999,China,
Licheng,24.506487,110.38918999999999,China,
Lihou,36.502891,113.369452,China,
Sunjia Buzi,42.017065,126.585125,China,
Binzhou,45.752809,127.479863,China,
Qi Xian Chengguanzhen,34.55,114.78333300000001,China,
Quyang,33.144721999999994,113.990278,China,
Suicheng,33.896298,117.933066,China,
Suishan,29.608310999999997,103.486027,China,
Ganting,34.102407,108.61406000000001,China,
Baoshan,31.408447,121.48956299999999,China,
Haoxue,30.047606,112.46759399999999,China,
Lingjiang,31.734605,105.93162099999999,China,
Tongyangdao,41.770309999999995,109.96987299999999,China,
Liaocheng,36.455963,115.97766399999999,China,
Xiaotiechang,26.283768,103.638597,China,
Qingkou,34.848279999999995,119.108352,China,
Jianguo,46.817698,130.396149,China,
Xinning,22.670796,107.889122,China,
Qapqal,43.801944,81.087222,China,
Yunji,26.693199,112.66748100000001,China,
Qiongxi,32.792722,102.542935,China,
Hongshui,38.424572999999995,100.792604,China,
Cikai,27.763444,98.711047,China,
Cili,29.424442,111.120131,China,
Shaping,22.770191,112.957757,China,
Shaping,29.230815999999997,103.26586800000001,China,
Micheng,25.32037,100.499313,China,
Luhua,32.067084,102.987858,China,
Zhaodong,46.067714,125.98263100000001,China,
Xunchang,28.454332,104.714984,China,
Sanjiang,24.720628,112.294422,China,
Sanjiang,26.6749,109.196,China,
Mandalt,43.840278000000005,113.715556,China,
Xangda,32.205511,96.478087,China,
Xamba,40.884722,107.14,China,
Gyamotang,31.533333000000002,95.43333299999999,China,
Guancheng,36.480313,115.435097,China,
Yingcheng,24.165876,113.412675,China,
Jinling,34.369253,107.149975,China,
Dayou,46.636158,126.987527,China,
Matou,23.355338,107.556401,China,
Pudong,31.235134000000002,121.527592,China,
Yutian,39.878611,117.739167,China,
Zhushan,29.994524,109.479075,China,
Changtu,42.778842,124.095447,China,
Yitong,43.326282,125.29726299999999,China,
Yitiaoshan,37.1533,104.06200000000001,China,
Huagai,31.546335,104.555319,China,
Rende,25.558204999999997,103.276037,China,
Rulong,30.941159000000003,100.310872,China,
Baokang Chengguanzhen,31.878056,111.25638899999998,China,
Baokang,44.119721999999996,123.304722,China,
Hecheng,28.139388,120.287985,China,
Haimen,31.896189,121.172735,China,
Baiquan,42.885382,124.95827,China,
Mengsuo,22.601988000000002,99.551373,China,
Kangmar,28.559534000000003,89.680088,China,
Weifen,38.480639000000004,111.16663700000001,China,
Suohe,34.787222,113.358056,China,
Songling,31.193303000000004,120.717577,China,
Kaiping,39.677985,118.252175,China,
Chengxian Chengguanzhen,33.741111,105.720556,China,
Changzhou,31.773584999999997,119.954007,China,
Xinfa,28.830708,104.320768,China,
Tangyang Chengguanzhen,35.914459,114.35513999999999,China,
Fengming,34.441389,107.617778,China,
Guidong Chengguanzhen,26.079034,113.94061599999999,China,
Yunmeng Chengguanzhen,31.062508,113.765447,China,
Lianyuan,27.688333,111.66416699999999,China,
Hongwansi,38.835135,99.598649,China,
Xiritala,43.938889,116.070209,China,
Luxi,27.636184000000004,114.03528600000001,China,
Mugala,36.857601,81.668437,China,
Hongqi,47.317996,130.267902,China,
Guangming,47.33972,130.286792,China,
Dongshan,47.342772,130.312222,China,
Gounan,47.35941,130.297473,China,
Weitang,30.850208000000002,120.911377,China,
Fuding,27.327338,120.213995,China,
Dedang,24.011797,99.239645,China,
Huaihelu,34.716383,113.641383,China,
Taocheng,22.879355,107.156478,China,
Dangcheng,34.427868,116.37656899999999,China,
Gushu,31.56055,118.481466,China,
Nixia,32.975025,98.09589,China,
Xibu,23.699059,117.42510700000001,China,
Jiang’an,28.733351000000003,105.068298,China,
Helixi,30.628408,118.98123999999999,China,
Xihu,36.067345,103.77654100000001,China,
Zhangyelu,36.057516,103.822687,China,
Anning Xilu,36.1035,103.719285,China,
Changshun,41.891389000000004,113.992222,China,
Yuhu,26.10679,99.98292,China,
Tianxingchang,27.842292999999998,103.982423,China,
Suixi,33.890673,116.774725,China,
Suicheng,21.379507999999998,110.250523,China,
Sui Xian Chengguanzhen,34.447966,115.044394,China,
Lubei,28.586331,121.36998100000001,China,
Qianyou,33.6775,109.123333,China,
Fufeng,34.360504999999996,107.873484,China,
Ziyang Chengguanzhen,32.51917,108.532321,China,
Shazhou,40.13799,94.66227099999999,China,
Anju,30.349556,105.455937,China,
Lianzhou,21.666214,109.20116000000002,China,
Lianzhou,24.781857000000002,112.371196,China,
Chuimatan,35.7181,102.87406700000001,China,
Bailingmiao,41.691944,110.435556,China,
Minjian,28.846216,103.545754,China,
Runing,33.001111,114.35416699999999,China,
Rulin,26.347040000000003,110.266268,China,
Yuanjiazhuang,33.523194000000004,107.98300400000001,China,
Nahaping,28.431773,103.857825,China,
Yucheng,29.985205999999998,102.999004,China,
Guma,37.616805,78.28087,China,
Pitong,30.809929999999998,103.882532,China,
Seke,32.270389,100.331691,China,
Zhangbei,41.1525,114.707778,China,
Bianjiang,49.5578,128.47306799999998,China,
Shouchun,32.581619,116.792915,China,
Damxung,30.533333000000002,91.1,China,
Luofeng,37.364974,120.40996899999999,China,
Huangshan,29.715258000000002,118.32303200000001,China,
Loufan,38.091796,111.807208,China,
Licheng,23.295488,113.824648,China,
Barkol,43.598813,93.008625,China,
Dianjun,30.701545,111.25990800000001,China,
Altan Emel,48.666667,116.83333300000001,China,
Yangchang,26.074487,104.34077099999999,China,
Yongdeng Chengguanzhen,36.733609,103.259311,China,
Yilong,23.691374,102.487014,China,
Huidong,26.637446,102.575676,China,
Dong Liang’erzhuang,36.727111,115.25568500000001,China,
Kuangyuan,24.913791,103.147888,China,
Linxi,36.862721,115.492476,China,
Xiaodian,37.736389,112.556389,China,
Hongkou,31.25,121.489167,China,
Toksun,42.793589000000004,88.64163,China,
Zhabu,33.1189,83.3038,China,
Fengxiang,47.575487,130.82306200000002,China,
Fuyu,30.15,116.11666699999999,China,
Longxu,23.416667,111.233333,China,
Dongcheng,28.893807000000002,120.04024299999999,China,
Dianweijie,25.9075,102.854444,China,
Wuxue,29.850578000000002,115.552504,China,
Wuxuan,23.624654999999997,109.652005,China,
Dawu,34.466234,100.229935,China,
Ruoqiang,39.020027,88.16465500000001,China,
Gulaobei,30.519413,111.426644,China,
Heping,28.5579,108.49,China,
Hepingyizu,29.246932,103.082491,China,
Yujin,29.209088,103.945559,China,
Xiaojiang,22.272958,109.55184299999999,China,
Dafeng,23.43422,108.598252,China,
Molo,30.860043,98.272972,China,
Dasongshu,26.136848,103.57336,China,
Kuytun,44.427074,84.90069100000001,China,
Bayan,46.075563,127.398403,China,
Yicheng,31.360588,119.82015700000001,China,
Guji,27.169565000000002,103.284299,China,
Jiading,25.429505,114.92804199999999,China,
Lazanzhong,28.221241999999997,99.73224300000001,China,
Siyang,27.2116,108.745,China,
Siyang,22.168409,107.943087,China,
Sicheng,33.489359,117.85678899999999,China,
Xinyuan,43.451111,83.147778,China,
Xinyuan,37.3,99.0,China,
Hanshou,28.905833,111.956111,China,
Lincheng,26.869319,109.66336499999998,China,
Shengrenjian,34.844218,111.19131200000001,China,
Shengping,28.485635,98.911388,China,
Xinhuang,27.373588,109.13376299999999,China,
Jingyu,42.372673,126.801146,China,
Wulan,36.565412,104.684012,China,
Xiangshui,35.476949,106.33112,China,
Tianning,37.547222,112.160531,China,
Liuba,33.618611,106.918889,China,
Shuguang,47.724107000000004,128.67398899999998,China,
Zhanggu,30.868746999999995,101.888481,China,
Nanchansi,31.56242,120.300211,China,
Liyang,29.6518,111.75200000000001,China,
Tongquan,25.4,103.56666700000001,China,
Nanjie,35.735556,107.635278,China,
Fengchuan,28.7,115.38333300000001,China,
Xuejiawan,39.866779,111.220798,China,
Chong’ansi,31.579874,120.295176,China,
Jianping,31.130626,119.17829499999999,China,
Jisegumen,34.0642,80.7712,China,
Qingfeng Chengguanzhen,35.903611,115.105278,China,
Qingfu,28.437006,104.516217,China,
Suizhong,40.329159000000004,120.336526,China,
Baocheng,18.640278,109.699444,China,
Yong’an,36.657621,111.566433,China,
Xiaopingba,25.494863,102.512259,China,
Maindong,31.333333000000003,85.416667,China,
Jingcheng,32.014167,120.2625,China,
Nayun,22.331962,99.56132,China,
Chaling Chengguanzhen,26.790971999999996,113.539754,China,
Pingpo,25.428369,103.754548,China,
Zhowagoin,28.659104,97.450648,China,
Shanjiao,27.322302,103.068444,China,
Huliao,24.35764,116.68662900000001,China,
Xinpu,34.599722,119.159444,China,
Fendou,47.409546999999996,129.428217,China,
Huichang,34.903762,112.78426100000001,China,
Renhua,25.091253,113.744455,China,
Yacha,19.230556,109.4475,China,
Pisha,27.070574,102.75770899999999,China,
Baijiantan,45.689278,85.124414,China,
Hangchuan,27.519465999999998,117.33490800000001,China,
Dalain Hob,41.965278000000005,101.063889,China,
Longbo,25.92922,111.622201,China,
Tuodian,24.666667,101.633333,China,
Zhongxin,26.616667,101.271538,China,
Yongfeng,27.428290999999998,112.18337700000001,China,
Yongding,25.198596,102.461887,China,
Yongding,26.041220000000003,101.686418,China,
Qingfenglin,27.787767,105.14573200000001,China,
Shuitianzhai,27.764327,105.251579,China,
Zhongcun,26.134589000000002,102.681092,China,
Kuancheng,40.605556,118.4825,China,
Chugqênsumdo,33.433333000000005,101.43333299999999,China,
Pucheng,27.923333000000003,118.53333300000001,China,
Donghe,32.233414,106.301257,China,
Toding,31.480563,79.79803299999999,China,
Toli,45.938586,83.60055799999999,China,
Nu’erbage,37.113399,79.910337,China,
Yangming,44.596291,129.620814,China,
Poyang,28.992423,116.66753600000001,China,
Xiping,40.039522,113.604551,China,
Gantang,30.296944,118.130556,China,
Gulang,37.466575,102.894281,China,
Hengzhou,22.688620999999998,109.265892,China,
Longquan,36.117364,113.185709,China,
Longshan,24.600891,98.704185,China,
Nanjie,41.017943,119.05223500000001,China,
Yancheng Chengguanzhen,33.584722,113.986667,China,
Yancheng,36.799444,116.743889,China,
Yancheng,33.357503,120.157296,China,
Dongfeng,42.640309,125.511762,China,
Zhedao,24.819342000000002,98.27627,China,
Erqu,34.152778000000005,108.20638899999999,China,
Fengshan,30.88712,115.420906,China,
Fengshan,24.583333,99.9,China,
Fengshan,26.485556,119.549167,China,
Menghai,21.953224,100.384087,China,
Zhongcun,27.798053999999997,100.205368,China,
Yumen,40.283333,97.2,China,
Bada,24.592975,105.093244,China,
Quanjiang,26.309555,114.512924,China,
Yuelai,47.023246,130.712963,China,
Qingyuan,37.617478000000006,112.325826,China,
Xicheng,35.246156,115.433357,China,
Leli,24.354055,106.243695,China,
Luxu,23.221171,108.802985,China,
Lin’an,30.235833000000003,119.718056,China,
Xinhua,23.6431,105.653167,China,
Xinhua,26.888378000000003,102.93324399999999,China,
Huangpi,30.884534000000002,114.377886,China,
Cuihua,27.737658000000003,103.857385,China,
Zhuozishan,40.899167,112.560278,China,
Taohong,27.101071,110.994859,China,
Fengcheng,26.197222,119.53916699999999,China,
Dizhuang,33.564519,114.069652,China,
Xinzheng,31.27491,106.28714,China,
Dahua,23.767981,107.984101,China,
Yuecheng,28.122911,120.96068600000001,China,
Lianshan,40.764317,120.85327,China,
Xinjing,23.202524,106.382069,China,
Xushan,30.176405,121.24570200000001,China,
Tianjiao,39.825532,109.99952900000001,China,
Bieligutai,44.030303,114.98035700000001,China,
Bala Ga’er Gaole,44.591491999999995,117.623696,China,
Zhangjiajie,29.129444,110.478333,China,
Zhoukou,31.034725,106.401131,China,
Changhanchi,41.761687,119.440176,China,
Yanta,36.241111,115.667222,China,
Yan’an Beilu,44.007816999999996,87.30461,China,
Tangdukou,26.965892999999998,111.241376,China,
Penglai,30.582174,105.25141200000002,China,
Tongle,24.847568,106.576396,China,
Mingyue,43.106944,128.92166699999999,China,
Tianpeng,30.986641,103.93933299999999,China,
Xiaoshan,30.167456,120.258831,China,
Saihan Tal,42.735833,112.651389,China,
Sêraitang,32.935187,100.73756800000001,China,
Mingxing,37.426389,112.54416699999999,China,
Xiangcheng Chengguanzhen,33.847033,113.477796,China,
Maoshanjie,25.667761,102.49906,China,
Yangshe,31.868368,120.541324,China,
Hanji,35.495436,102.992604,China,
Mingfeng,31.061667,111.642778,China,
Yining,29.036139000000002,114.56361799999999,China,
Taixing,32.166667,120.01361100000001,China,
Pumiao,22.758671,108.48111000000002,China,
Wucheng,31.283697999999998,117.901931,China,
Tungdor,29.2,94.083333,China,
Tuncheng,19.363332999999997,110.097778,China,
Dingcheng,19.679143,110.36231200000002,China,
Aksu,41.184178,80.279205,China,
Uchturpan,41.151666999999996,79.225,China,
Shinan,22.743897,109.87428200000001,China,
Fancheng,39.189918,113.26401399999999,China,
Beijie,36.716226,115.15949099999999,China,
Chensan,36.736674,115.134322,China,
Ningzhou,24.1877,102.917,China,
Meishan,34.161667,112.829722,China,
Yixing,37.337599,113.53925600000001,China,
Wenlin,29.998140999999997,104.139915,China,
Hehai,31.829212,119.977802,China,
Damatou,28.617514,112.336945,China,
Dongshan,31.955678999999996,118.832691,China,
Dongshan,25.793889,114.54256299999999,China,
Youxi Chengguanzhen,26.173610999999998,118.17888899999998,China,
Mashan,45.205083,130.526144,China,
Ganzhou,25.846642000000003,114.93259499999999,China,
Nada,19.522574,109.578598,China,
Fengcheng,37.432778000000006,112.02333300000001,China,
Yisa,23.332314,102.44711099999999,China,
Wenshang,35.728413,116.49118100000001,China,
Yuegai,34.129082000000004,95.80006800000001,China,
Luoxiong,24.885583999999998,104.292254,China,
Jijiang,29.289931,106.25000800000001,China,
Zhongshanlu,29.356946,105.90435,China,
Xiaoduchuan,30.291134000000003,109.47615900000001,China,
Zhongba,27.954256,105.040384,China,
Dongcheng,28.647302000000003,121.27106,China,
Yunhe,26.524966,100.197802,China,
Yunfu,22.928325,112.03953899999999,China,
Biancheng,40.678519,122.36233100000001,China,
Sanyuan Chengguanzhen,34.614722,108.92833300000001,China,
Bao’an,36.828988,108.75814,China,
Leiyang,26.402382,112.859078,China,
Beilun,29.919166999999998,121.837778,China,
Shanhu,29.595833000000002,120.816667,China,
Jingzhou,37.688678,116.25958100000001,China,
Jingchuan,30.689159999999998,118.404306,China,
Xiluodu,28.244246,103.638491,China,
Liucheng,30.7,103.837711,China,
Fengcheng,25.056967,118.182895,China,
Wuqi,36.926314,108.17171299999998,China,
Zhuolu,40.369444,115.21611100000001,China,
Fengcheng,24.723647,116.724286,China,
Qumodê,32.200763,79.184467,China,
Hanbin,32.889722,108.904444,China,
Weiyang,34.290597,108.935543,China,
Hexi,21.686511,110.634166,China,
Kaji,26.028488,102.788844,China,
Xinlin,51.7,124.33333300000001,China,
Xinling,31.025301000000002,110.31815900000001,China,
Echeng,38.374443,111.97166499999999,China,
Qiancheng,27.185012,109.765432,China,
Saziba,25.867261,102.618539,China,
Heping,46.086257,122.077083,China,
Gaoping,30.775757000000002,106.102938,China,
Yancheng,38.915376,111.86928200000001,China,
Tiantan,35.966111,111.84166699999999,China,
Qingyang,37.495833000000005,121.25805600000001,China,
Zhujiacun,26.320406,104.395712,China,
Inder,46.7,122.933333,China,
Jinshi,26.417959999999997,110.800169,China,
Liuxiang,37.871431,112.56053500000002,China,
Julun,37.907395,112.557744,China,
Qianfeng,37.849424,112.52081499999998,China,
Mingshui,47.181499,125.900272,China,
Tianshan,43.887365,120.093356,China,
Zhongcheng,28.59103,103.93957900000001,China,
Shaoyang,32.929583,119.83575800000001,China,
Chunxi,31.327686,118.87489,China,
Xiaoshi,41.297111,124.12091799999999,China,
Sa’gya,28.916666999999997,88.05,China,
Ghulja,43.963511,81.522132,China,
E’zhou,30.396071999999997,114.886546,China,
Wuchang,44.914282,127.150007,China,
Luzhai,24.497539,109.73314599999999,China,
Longquan,30.561296999999996,104.26893199999999,China,
Miaodong,41.280728,119.43553200000001,China,
Fendou,46.641422,124.86283300000001,China,
Yinggen,19.038332999999998,109.84,China,
Togrog Ul,40.7867,113.205,China,
Shanhe,35.484361,108.36398200000001,China,
Yuanzhou,27.798464000000003,114.376078,China,
Huangyuan Chengguanzhen,36.687488,101.270844,China,
Pan’an,29.05368,120.437579,China,
Panlian,26.887777000000003,102.108356,China,
Fenyi,27.811165999999997,114.668047,China,
Yangpu,31.261927000000004,121.51903700000001,China,
Aoxi,27.425889,115.836427,China,
Aoyang,28.23896,114.920814,China,
Daxing,27.263693,100.863871,China,
Huludao,40.752425,120.83552399999999,China,
Xinli,39.844167,108.73472199999999,China,
Lhünzê,28.412189,92.461706,China,
Liancheng,24.051920000000003,105.074969,China,
Lijiang,23.571097,102.004166,China,
Langjiu,32.359478,80.426797,China,
Yilan,46.316182,129.554546,China,
Dingcheng,29.019371999999997,111.67976100000001,China,
Liquan Chengguanzhen,34.481111,108.42361100000001,China,
Zhaxi,27.850811,104.96873899999999,China,
Shiziba,27.979619,104.180586,China,
Xihuachi,35.816389,108.0125,China,
Hongjunlu,45.303468,130.97595800000002,China,
Gufu,31.362078999999998,110.729184,China,
Ji’an,27.117158,114.979267,China,
Ji’an,41.123484999999995,126.17630700000001,China,
Maytagh,44.333333,84.85,China,
Jian’ou,27.046944,118.325278,China,
Hanyin Chengguanzhen,32.891389000000004,108.504722,China,
Hanyuan,34.010833,105.291944,China,
Yancheng,29.650681,104.067234,China,
Jingyang,30.291944,118.5425,China,
Jingyang,32.516667,107.88333300000001,China,
Gyangkar,28.4,87.8,China,
Bama,24.170541,107.248919,China,
Wusong,30.95,117.78333300000001,China,
Yuxi,28.889,107.594,China,
Juegang,32.317370000000004,121.185525,China,
Yueyang,30.102296999999997,105.333372,China,
Yueyang,36.289603,111.91453500000001,China,
Mori,43.824422999999996,90.194758,China,
Fusong,42.325047999999995,127.27265,China,
Shangguan,39.069009,112.929129,China,
Daiyue,39.520379,112.81684399999999,China,
Yingchuan,34.162778,113.463889,China,
Bayinbaolige,41.091389,107.06638899999999,China,
Jingshan,39.925278000000006,116.404109,China,
Shedian,33.061278,112.94259,China,
Maoping,30.829721999999997,110.977778,China,
Dongqu,37.920204999999996,112.20018400000001,China,
Baima,30.057524,96.918523,China,
Qingquan,30.45113,115.255931,China,
Suicheng,26.837787,116.83591899999999,China,
Chengxiang,24.746362,114.52491,China,
Lüeyang Chengguanzhen,33.332045,106.154956,China,
Zhecheng Chengguanzhen,34.104597,115.317604,China,
Jinta,39.983333,98.866667,China,
Shuigou’ao,27.11913,103.35337,China,
Wufeng,27.45,104.833333,China,
Yanjing,27.426986,101.509675,China,
Shishi,24.740382999999998,118.62906100000001,China,
Ning’er,23.040533,101.036834,China,
Ninghai,29.289167,121.424722,China,
Chunhua,34.798889,108.575,China,
Xianshuigu,38.985,117.382778,China,
Jiaocheng,24.657319,116.16709099999999,China,
Xinchenglu,31.388639,121.263053,China,
Puyang,35.763182,115.01721299999998,China,
Chaoge,35.605,114.18861100000001,China,
Bujie,28.033518,105.055699,China,
Wulaocun,32.034371,118.795754,China,
Luanping,40.916667,117.28333300000001,China,
Xinshiba,28.970910999999997,102.771265,China,
Xing’an,47.246296,130.220376,China,
Taipingdian,28.559255,104.222027,China,
Xianghu,25.8,116.0,China,
Datong,46.033759,124.810644,China,
Mengdong,23.161522,99.202263,China,
Kouquan,39.9982,113.145,China,
Kouqian,43.639137,126.457835,China,
Shirong,29.350922999999998,102.65248100000001,China,
Zhongzhan,35.241389,113.160278,China,
Xiashi,30.536294,120.686384,China,
Ziyang,29.249722,117.854722,China,
Huohua,30.758999,106.059358,China,
Wufeng,30.200001,110.69081200000001,China,
Jinchuan,31.475509999999996,102.058838,China,
Jinchuan,27.760358,115.388502,China,
Hoh Ereg,41.095556,111.44083300000001,China,
Zhaoren,35.206666999999996,107.791389,China,
Huichang,25.600737,115.777955,China,
Xindu,30.822359999999996,104.157421,China,
Yatou,37.156603000000004,122.437623,China,
Yisuhe,27.765437,112.92683000000001,China,
Dianga,34.063627000000004,103.21358199999999,China,
Baochang,41.884444,115.27888899999999,China,
Taiping,28.368765999999997,121.36171000000002,China,
Gushi Chengguanzhen,32.162076,115.66988700000002,China,
Hanchang,28.7,113.58333300000001,China,
Dazhou,31.215921,107.500922,China,
Xi Xian Chengguanzhen,32.343610999999996,114.729444,China,
Jimsar,43.983333,89.06666700000001,China,
Lishi,24.804591000000002,115.033252,China,
Jinxiu,24.137207999999998,110.18009099999999,China,
Gaocheng,29.988143,100.269403,China,
Long’an,32.409335999999996,104.528684,China,
Long’an Chengxiangzhen,23.207117,107.650901,China,
Dengzhou,37.808222,120.759083,China,
Gaotangling,28.366667,112.816667,China,
Yongchang,31.665741999999998,104.437265,China,
Guishan,24.05027,102.00018100000001,China,
Xiangjiaba,28.632664000000002,104.40415899999999,China,
Babao,38.180556,100.240278,China,
Guozhen,34.365907,107.359045,China,
Ma’erkang,31.901964000000003,102.22068399999999,China,
Luwan,31.209083000000003,121.46335400000001,China,
Xiushan,24.109992000000002,102.761531,China,
Nanma,36.184779999999996,118.15486000000001,China,
Congdü,28.15,85.966667,China,
Naxi,28.77422,105.36488,China,
Xinxing,47.154674,123.809867,China,
Xinglongchang,28.266327,104.38904699999999,China,
Zijinglu,34.76,112.97138899999999,China,
Ganhechen,33.5582,114.02,China,
Huanfeng,31.716666999999998,118.1,China,
Hong’an Chengguanzhen,31.362075,114.63689,China,
Khutubi,44.190348,86.885212,China,
Xiannü,32.428065000000004,119.560478,China,
Jingning Chengguanzhen,35.52036,105.72301200000001,China,
Jiangkou,23.439158,111.497401,China,
Xinji,31.6232,114.874,China,
Guang’an,30.474126000000002,106.636959,China,
Sêrkang,32.216667,92.116667,China,
Nanzhang Chengguanzhen,31.783941,111.827518,China,
Beiyingzi,40.760692999999996,119.11786299999999,China,
Baiyin Chagan,41.453333,113.183333,China,
Dawangzhuang,39.127029,117.21618400000001,China,
Dayingmen,39.107338,117.209584,China,
Linjiang,36.3275,112.88194399999999,China,
Taiqian Chengguanzhen,35.99102,115.85323100000001,China,
Jiecun,27.355721999999997,102.98271,China,
Sui’an,24.086982,117.60911999999999,China,
Huzhong,51.95,123.66666699999999,China,
Shiguai,40.705833,110.285556,China,
Ningnan,31.985041,118.781471,China,
Bengshutang,28.036640999999996,99.508353,China,
Aba,32.905943,101.706251,China,
Chenggan,26.145431,102.803007,China,
Ningjin,37.649848999999996,116.793282,China,
Jianghai,22.575183,113.119045,China,
Dayu,39.937499,116.096686,China,
Doucun,34.748084999999996,109.179676,China,
Salaqi,40.541389,110.510833,China,
Jiaokui,27.594143,104.004778,China,
Nanjie,23.634137,112.434781,China,
Fengqiu Chengguanzhen,35.029167,114.41305600000001,China,
Geluwan,27.373738,99.65607299999999,China,
Xiling,30.71606,111.28390300000001,China,
Puji,27.380189,102.541263,China,
Jiaxiang,35.396058000000004,116.348001,China,
Luanzhou,39.75,118.733333,China,
Chenghua,23.461319,116.770071,China,
Pagnag,32.269858,91.68100600000001,China,
Pagqên,33.968645,99.900974,China,
Ningxiang,37.34,111.20522700000001,China,
Mengcheng Chengguanzhen,33.266109,116.566052,China,
Duohu,29.093696,119.685107,China,
Moluo,30.803922999999998,98.10038,China,
Wuyun,28.653885,120.066934,China,
Wuyuan,30.515387,120.94856200000001,China,
Xinzhou,24.872345000000003,105.351169,China,
Xiangzhou,23.972824,109.66677800000001,China,
Shuiying,27.810134,104.798397,China,
Lhünzhub,30.201,91.301,China,
Hezuo,34.985556,102.909444,China,
Chengzhong,29.106444,119.648553,China,
Tuanfeng,30.713606,114.91613000000001,China,
Yishi,35.164972,110.745979,China,
Yishan,34.299444,119.254167,China,
Songmai,28.714706,99.286325,China,
Songlong,31.162399,120.6384,China,
Yuanhe,31.399290999999998,120.614446,China,
Hongliuwan,39.63187,94.336939,China,
Meilisi,47.314988,123.75441799999999,China,
Kalpin,40.52755,79.06577,China,
Lintan Chengguanzhen,34.68885,103.352424,China,
Shuangqiao,35.09,112.58,China,
Nansha,23.180369,102.8333,China,
Chengguan,39.907222,111.67333300000001,China,
Qingyuan,28.117203000000003,112.99846299999999,China,
Nancheng,36.948611,115.997778,China,
Longquan,36.695249,110.95563999999999,China,
Xixiang,32.987028,107.76399599999999,China,
Lintong,34.378027,109.208925,China,
Shouxihu,32.420891999999995,119.404354,China,
Dahuaishu,36.265556,111.675278,China,
Bagrax,41.984334999999994,86.621985,China,
Baicheng,23.899722,106.61333300000001,China,
Xiaohebian,27.727632,103.995138,China,
Huanggexi,27.854143,103.86105400000001,China,
Yuelejie,27.826934,103.783072,China,
Bencheng,39.5,118.7,China,
Baiguan,30.032506,120.859955,China,
Huazhou,32.682221999999996,112.081944,China,
Gengqing,31.816489,98.595791,China,
Huangzhai,38.075136,112.65945900000001,China,
Guixi,30.333551,107.345446,China,
Caidian,30.583333000000003,114.03333300000001,China,
Changde,29.046378000000004,111.678304,China,
Xi’an,34.258333,108.928611,China,
Xiugu,27.911317999999998,116.77637,China,
Coka,30.9054,94.6695,China,
Xindou,31.396484,100.67846899999999,China,
Zhangjiapan,37.601569,108.797024,China,
Samdo,31.2143,96.5994,China,
Huanan,46.2207,130.525,China,
Hechuan,26.936125,114.22778400000001,China,
Yanling,29.530646,104.66108100000001,China,
Xuefeng,26.357221999999997,117.197778,China,
Qasq,40.712222,111.12888899999999,China,
Luoyang,27.561389000000002,119.71138899999998,China,
Shangdu,42.250045,116.007975,China,
Daishan,30.245884999999998,122.198952,China,
Hekou,37.884645,118.526641,China,
Yiyang Chengguanzhen,34.510833,112.162222,China,
Dongcheng,33.412347,115.08090800000001,China,
Zhongshan,22.523058,113.379122,China,
Zhadün,29.65,84.166667,China,
Sanhe,29.868640999999997,107.73026599999999,China,
Rutog,33.384228,79.729824,China,
Youyi,46.804848,130.319219,China,
Haliut,41.556111,108.519722,China,
Lianran,24.922707,102.484959,China,
Baiyu,28.576627000000002,99.672016,China,
Shuijia,27.488088,100.06321,China,
Puyang Chengguanzhen,35.705058,115.014086,China,
Jincheng,30.997115,105.88191100000002,China,
Jincheng,25.501468,102.400584,China,
Zhaoping,24.172435,110.787031,China,
Shoushan,34.277714,107.746192,China,
Dingping,30.338621999999997,106.92699499999999,China,
Qianzhou,28.319255,109.73345800000001,China,
Acheng,45.545452000000004,126.97703100000001,China,
Qincheng,34.580278,105.727222,China,
Tiantai Chengguanzhen,29.136327,121.02958000000001,China,
Ningling Chengguanzhen,34.45,115.316667,China,
Ningjin,36.9863,122.50200000000001,China,
Lianjiang,22.590178,113.076419,China,
Chumba,29.083333000000003,92.6,China,
Changsha,22.381245,112.684921,China,
Nankengzai,26.283333000000002,117.88333300000001,China,
Dongmen,24.791982,108.900002,China,
Yanshi Chengguanzhen,34.71601,112.795677,China,
Yuyue,30.018199,113.963247,China,
Tiancheng,29.540217,114.041547,China,
Tianchang,32.684971000000004,119.009321,China,
Xireg,36.918657,98.444627,China,
Fuyang,30.053333000000002,119.951944,China,
Guanghe Chengguanzhen,35.481533,103.576044,China,
Rongwo,35.514829999999996,102.015999,China,
Shicheng,27.106706,119.334993,China,
Lubei,44.608659,120.955603,China,
Chengfangqiao,25.757251,103.83104200000001,China,
Yizhang Chengguanzhen,25.383226999999998,112.97896899999999,China,
Shiqiao,22.946399,113.35768799999998,China,
Kuaidamao,41.655322999999996,125.742248,China,
Chenying,28.692901000000003,117.06731599999999,China,
Jiangyan,32.506111,120.142778,China,
Wujin,30.411309000000003,103.813016,China,
Xinglong,40.420278,117.5075,China,
Jinding,26.439027000000003,99.440606,China,
Meixian,24.283815,116.069533,China,
Lingchuan,25.409511,110.322777,China,
Wanzhi,31.146871,118.56708300000001,China,
Gaolan Chengguanzhen,36.334669,103.945559,China,
Batang,30.006563,99.107236,China,
Shishan,31.298826000000002,120.565155,China,
Shuangta,31.304077000000003,120.629678,China,
Pingjianglu,31.314688,120.62978500000001,China,
Nirji,48.483333,124.483333,China,
Qiaoshang,27.942737,105.164845,China,
Hanshang,32.377438,119.39302099999999,China,
Gaocun,27.877306,109.784755,China,
Loushanguan,28.1368,106.822,China,
Danfeng,24.83054,104.008195,China,
Yaozhou,34.905278,108.97,China,
Tiexi,47.311865999999995,130.280271,China,
Ehen Hudag,39.2,101.666667,China,
Jiulong,30.53622,106.43713000000001,China,
Xingsha,28.239721999999997,113.087778,China,
Songbai,31.756847999999998,110.672517,China,
Yong’an,39.695712,113.687079,China,
Qiaotou,36.935,101.673611,China,
Gulin,28.042232000000002,105.810378,China,
Lucheng,31.233572,117.280566,China,
Zhushan Chengguanzhen,32.221786,110.23613799999998,China,
Linwu Chengguanzhen,25.232470000000003,112.53981200000001,China,
Funan Chengguanzhen,32.636781,115.614943,China,
Aoyang,27.458889000000003,119.50138899999999,China,
Si’en,24.841981,108.271622,China,
Shuizhulin,27.944490999999996,103.674421,China,
Dailing,47.023889000000004,129.019035,China,
Chengguan,35.309353,115.11881100000001,China,
Yuanyang Chengguanzhen,35.052222,113.963889,China,
Nyinma,34.000651,102.071273,China,
Zongga,29.0,85.25,China,
Poskam,38.188669,77.270748,China,
Ruyang Chengguanzhen,34.150278,112.45833300000001,China,
Tiantang,30.85,116.35,China,
Yuanma,25.681969,101.871999,China,
Jifeng,35.613467,110.958542,China,
Zhihe,36.779964,110.63956200000001,China,
Jibenggang,29.6583,91.1276,China,
Dangquka,30.4859,91.1026,China,
Fenghuang,38.997803000000005,112.29778600000002,China,
Hanyuan,32.833995,106.250352,China,
Huixian Chengguanzhen,33.768333,106.08083300000001,China,
Chengguan,35.458611,113.79777800000001,China,
Nankang,29.446541999999997,116.040678,China,
Renminlu,36.551198,104.169515,China,
Ailan Mubage,43.908453,81.332995,China,
Tianchi,30.28112,105.02346100000001,China,
Xisa,23.450001,104.707746,China,
Rongshui,25.066667000000002,109.25,China,
Wudan,42.934444,119.02388899999998,China,
Lucheng,30.054261,101.967925,China,
Longquan,24.671925,102.161303,China,
Xianyang,34.33778,108.70261,China,
Xuri,28.435109999999998,117.91979199999999,China,
Xiongzhou,32.343592,118.84986200000002,China,
Furong,26.45,114.766667,China,
Yichuan Chengguanzhen,34.419722,112.41916699999999,China,
Guzhen Chengguanzhen,33.310556,117.310556,China,
Jimai,33.751545,99.648212,China,
Youxian Chengguanzhen,26.991681,113.36061699999999,China,
Chenyang,28.015815000000003,110.172982,China,
Beijinglu,31.322678000000003,118.38505500000001,China,
Liminlu,31.318845,118.362885,China,
Zhongshan,24.533333,111.3,China,
Jin’e,29.343128999999998,105.28442700000001,China,
Minzhu,43.721445,127.334015,China,
Bazhou,31.8557,106.772,China,
Burang,30.295594,81.17511400000001,China,
Binhe,37.510841,105.184446,China,
Xiaping,26.731389,114.270278,China,
Wuling,39.467988,114.148425,China,
Kangbao,41.846389,114.61388899999999,China,
Yuli,41.336622999999996,86.256755,China,
Jichang,36.101110999999996,110.67333300000001,China,
Xiaoxita,30.77135,111.321458,China,
Wenquan,34.935278000000004,113.073333,China,
Xayar,41.23,82.80583299999999,China,
Luqiao,29.932463000000002,102.23163100000001,China,
Dongguan,39.01732,111.126737,China,
Daqinglu,34.899274,112.58314399999999,China,
Wacheng,33.783333,114.516667,China,
Decheng,23.142632,111.777367,China,
Deqing,30.54485,119.959901,China,
Mangqu,35.585696999999996,100.752372,China,
Xingguo,29.922525,115.302076,China,
Xingguo,34.858610999999996,105.66861100000001,China,
Tubu,29.045323,115.812674,China,
Baoshenmiao,40.912099,119.072601,China,
Qinglong,40.405556,118.94388899999998,China,
Dangchang Chengguanzhen,34.044616,104.394643,China,
Nagqu,31.403000000000002,92.00299999999999,China,
Awat,40.638369,80.379655,China,
Karakax,37.272249,79.737278,China,
Shancheng,24.491553,117.34568,China,
Hunchun,42.8675,130.358056,China,
Xing’an,50.247699,127.49323400000002,China,
Qionghu,28.840611,112.373994,China,
Xishaqiao,28.302511,103.98481899999999,China,
Gaoleshan,29.678254,109.144526,China,
Zhuxi Chengguanzhen,32.325686,109.72336899999999,China,
Linquan,37.979647,111.020587,China,
Linxia Chengguanzhen,35.600278,103.206389,China,
Kaiyuan,36.068126,113.82208600000001,China,
Changning,24.955676999999998,115.642358,China,
Youdian,24.828942,99.59231700000001,China,
Shuihu,32.476667,117.15777800000001,China,
Weishi Chengguanzhen,34.413610999999996,114.18722199999999,China,
Xincheng,22.701551000000002,112.224645,China,
Nangandao,35.190329999999996,113.80151000000001,China,
Bishui,32.717861,113.311672,China,
Biyang,29.928851,117.946378,China,
Kulun,42.730556,121.77555600000001,China,
Changping,28.207833,103.85499,China,
Moshiyi,27.827702000000002,103.72828,China,
Jingpeng,43.25,117.516667,China,
Jingping,39.52,112.28388899999999,China,
Qian’an,44.993243,124.058109,China,
Xinzhai,23.72048,117.14866200000002,China,
Xujiang,26.839445,116.32011000000001,China,
Chengbei,40.223033,116.24583799999999,China,
Lindian,47.182583,124.867727,China,
Yopurga,39.23938,76.764317,China,
Ngamring,29.233333000000002,87.166667,China,
Domartang,30.939020000000003,94.689083,China,
Yiwu,29.315056,120.07676399999998,China,
Taizhou,28.662658,121.433117,China,
Haimen,28.680740000000004,121.424075,China,
Chengxiang,31.398604,109.62284299999999,China,
Jiyuanlu,34.8225,113.267222,China,
Shangjie,25.671058,99.980246,China,
Xinjie,28.148531,103.966575,China,
Qabqa,36.281389000000004,100.613056,China,
Wuhu,31.337275,118.37350900000001,China,
Wuhe Chengguanzhen,33.1386,117.86581699999999,China,
Jinniu,25.800617000000003,100.574348,China,
Yinla,29.577302000000003,94.483014,China,
Jinchang,38.498084000000006,112.923603,China,
Dingxi,35.570882,104.62302700000001,China,
Dingtao,35.074357,115.56581499999999,China,
Nuojiang,31.915616999999997,107.24273000000001,China,
Zhouqu Chengguanzhen,33.784167,104.362778,China,
Chizhou,30.661338,117.477833,China,
Huili Chengguanzhen,26.662557,102.243916,China,
Lugu,39.896719,116.22036499999999,China,
Fucheng,37.869132,116.150577,China,
Dongning,44.062188,131.120752,China,
Xiayi Chengguanzhen,34.236803,116.116076,China,
Mazhang,21.275737,110.322116,China,
Gangu Chengguanzhen,34.735642,105.32632,China,
Hongmiao,32.224835,118.919748,China,
Xiqu,26.605659000000003,101.598282,China,
Shilu,19.259838000000002,109.04883799999999,China,
Lumaka,33.086158000000005,80.367838,China,
Yelin,18.520989,110.03970100000001,China,
Fangting,31.127655999999998,104.166487,China,
Lecheng,25.113712,113.354076,China,
Nanlong,31.35333,106.06308999999999,China,
Mengla,21.468588,101.550688,China,
Dongchuan,25.47655,101.284676,China,
Xiaqiaotou,27.185338,100.043374,China,
Yujiazhai,27.841525,104.824913,China,
Jing’an,22.210718,113.29218200000001,China,
Xinmatou,36.818025,115.170473,China,
Qujiang,30.842060999999998,106.967848,China,
Dongping,36.499,117.99600000000001,China,
Gujiang,35.493986,111.553343,China,
Jiaoxiyakou,26.128289000000002,102.450035,China,
Nong’an,44.381982,125.16846899999999,China,
Zhaoxian,28.70618,115.736166,China,
Zhuangyuan,37.305532,120.827467,China,
Yangquan,37.8575,113.56333300000001,China,
Huayuan,28.588147999999997,109.47578200000001,China,
Huayuan,31.314221000000003,114.01775,China,
Fangcheng Chengguanzhen,33.253217,113.001198,China,
Meicheng,30.634491999999998,116.579796,China,
Beijie,39.222640000000006,106.765794,China,
Kaihua Chengguanzhen,29.145862,118.409028,China,
Chengjiao,35.404948,114.06043100000001,China,
Chang’an,25.233333,109.38333300000001,China,
Beidao,34.568611,105.89333300000001,China,
Shunde,22.800869,113.292084,China,
Dongcun,38.294416,111.703525,China,
Xiongshan,27.364390999999998,118.85710900000001,China,
Zhize,21.755404000000002,111.61433400000001,China,
Xin’an,44.580334,129.625725,China,
Muzeng,26.052406,102.47926600000001,China,
Liyang,31.717716999999997,118.35730900000001,China,
Yanji,33.9653,116.45100000000001,China,
Langao Chengguanzhen,32.300278000000006,108.893056,China,
Xêgar,28.633333,87.083333,China,
Wenquan,47.183333000000005,119.96666699999999,China,
Dongping,28.380171999999998,111.205859,China,
Haomen,37.361884,101.587101,China,
Laojie,26.576957,103.046976,China,
Gunan,29.0231,106.648,China,
Xiwanzi,40.971389,115.2725,China,
Daqin Tal,42.887189,120.67466,China,
Chang’an,29.4718,113.444,China,
Jincheng,39.559123,113.18553700000001,China,
Liangshi,27.206364,111.737145,China,
Gonghe,25.255753,101.518568,China,
Weinan,34.503546,109.508908,China,
Huanghai,37.488699,121.440377,China,
Yuanquan,40.5,95.8,China,
Changning,31.217388,121.421051,China,
Yiyang,26.388931,112.37924699999999,China,
Changning,28.577725,104.920873,China,
Baiyin,36.546963,104.17023,China,
Yaohua,32.121517,118.871696,China,
E’erguna,50.223621,120.170919,China,
Labu,24.25985,109.33414499999999,China,
Labuleng,35.201249,102.521167,China,
Xincun,27.671783,103.869893,China,
Pengjia Zhaizi,27.608296999999997,103.5271,China,
Daihai,40.521111,112.49305600000001,China,
Peyziwat,39.495536,76.742825,China,
Zhijin,26.6668,105.76799999999999,China,
Neixiang Chengguanzhen,33.046667,111.84361100000001,China,
Chicheng,40.866667,115.83333300000001,China,
Jianxincun,25.838923,104.119515,China,
Songyang,34.455278,113.028056,China,
Yunling,23.953837,117.33603500000001,China,
Ulan,39.093745,107.98021899999999,China,
Oljoq,38.179789,107.47506100000001,China,
Chinggil,46.667248,90.378635,China,
Lucheng,22.314945,110.25630600000001,China,
Yongfu,25.004025,109.981848,China,
Huilong,31.811111,121.655,China,
Kongjiazhuang,40.7525,114.72611100000002,China,
Dongdajie,37.926860999999995,102.6343,China,
Liaoyang,37.079769,113.33985700000001,China,
Huancuilou,37.500412,122.113976,China,
Gaizhou,40.394166999999996,122.36861100000002,China,
Kambaxoi,28.3,88.533333,China,
Xincheng,33.541944,114.59833300000001,China,
Changning,35.979828999999995,110.82211000000001,China,
Taocheng,25.312304,118.30056299999998,China,
Dawu Chengguanzhen,31.609647999999996,114.11805700000001,China,
Zoumachang,27.871318,105.201048,China,
Dingcheng,32.516086,117.659516,China,
Huicheng,29.86925,118.433644,China,
Chaoyang,37.908013000000004,113.150438,China,
Xincheng Chengguanzhen,24.086126999999998,108.65261000000001,China,
Taikang,46.861346999999995,124.442001,China,
Fangxian Chengguanzhen,32.055,110.734167,China,
Fangzheng,45.838811,128.827572,China,
Dawa,40.993731,122.06804199999999,China,
Chongshan,18.782291,109.50130300000001,China,
Lixin Chengguanzhen,33.143276,116.227177,China,
Nandan Chengguanzhen,25.010361,107.55712,China,
Zhangping,25.299722,117.415,China,
Hekou,30.032324,101.005422,China,
Tanbei,35.088056,112.939444,China,
Huazangsi,36.976525,103.13521999999999,China,
Fanyang,31.084706,118.194254,China,
Fucheng,35.3725,103.705556,China,
Kangle,28.095571000000003,114.45007199999999,China,
Qingyang,36.207119,113.417208,China,
Nierong,32.113087,92.29571700000001,China,
Lishu,45.089785,130.691359,China,
Hengdong Chengguanzhen,27.083333000000003,112.95,China,
Chaoyang,42.662228000000006,126.026301,China,
Shuangxi,28.862954,115.35193999999998,China,
Dianyang,24.702606,99.159191,China,
Burqin,47.705940000000005,86.861312,China,
Lishu,43.304722,124.32777800000001,China,
Longxing,35.612973,111.219247,China,
Zhamog,29.866531,95.759028,China,
Gongjiang,25.957348,115.41001599999998,China,
Longgang,40.721464000000005,120.925576,China,
Shuidong,21.513405,111.00183700000001,China,
Shuitou,36.973061,111.20909499999999,China,
Shangtianba,28.031229999999997,103.86183100000001,China,
Xiyuzhuang,39.166306,117.15678999999999,China,
Urho,46.11651,85.67769,China,
Norbukyungzê,29.166666999999997,89.25,China,
Fuyang,24.834413,111.258021,China,
Mianyang,33.157033,106.694452,China,
Jiannan,31.343552000000003,104.195879,China,
Bofeng,44.158739000000004,87.974184,China,
Zuitou,34.06219,107.312657,China,
Zuitai,33.330829,105.604672,China,
Zunhua,40.179167,117.958611,China,
Gucheng,28.848561,121.116095,China,
Encheng,22.186594,112.304235,China,
Ming’antu,42.302778,114.993333,China,
Xinghe Chengguanzhen,40.875556,113.883889,China,
Pingdu,27.386296,114.610178,China,
Tianyi,41.566666999999995,119.33333300000001,China,
Nilka,43.783333,82.398333,China,
Fushi,29.183821999999996,105.001145,China,
Yunxing,39.999098,112.697869,China,
Wenquan,30.849283000000003,115.69909799999999,China,
Xiaoxi,24.352493,117.29070800000001,China,
Hai’an,32.543611,120.45,China,
Luozhou,21.605888,110.277049,China,
Gedong,37.893107,111.255435,China,
Shangtang,28.155409000000002,120.688201,China,
Longxian Chengguanzhen,34.907340999999995,106.849655,China,
Huayang,31.951648,119.16283700000001,China,
Gangou,26.515029,103.14767900000001,China,
Luogang,23.177887,113.501038,China,
Longquan,25.901389,112.21166699999999,China,
Yongbei,26.646227000000003,100.780728,China,
Jinxi,30.432254999999998,116.292174,China,
Wenhe,32.395234,119.426879,China,
Xishan,27.666666999999997,113.5,China,
Meixing,30.999071999999998,102.360185,China,
Meixi,47.631701,129.13064,China,
Chaoyang,48.886375,130.403228,China,
Wencheng,19.615701,110.74893600000001,China,
Tianfu,37.197232,122.052282,China,
Shiyan,32.6475,110.778056,China,
Longsheng,25.793611,110.00916699999999,China,
Sanjiaocheng,36.890833,100.99972199999999,China,
Leidaba,27.957234000000003,104.338717,China,
Youhao,47.853059,128.835654,China,
Weizhou,31.492672999999996,103.58491500000001,China,
Tongzilin,26.700387,101.851342,China,
Jianjun,34.691389,108.13972199999999,China,
Nancun,35.4635,112.796,China,
Dartang,31.933333,94.0,China,
Huquan,39.795376,114.18303300000001,China,
Jingchuan Chengguanzhen,35.331944,107.36111100000001,China,
Handian,36.045833,113.04416699999999,China,
Jiancheng,30.390968,104.549121,China,
Donglan,24.550181,107.38288500000002,China,
Yushan,31.677478999999998,120.80133700000002,China,
Wulingyuan,29.349363,110.544071,China,
Xicheng,23.306022,103.163512,China,
Chengxi,29.532940000000004,108.765096,China,
Longzhouwan,29.378611,106.54,China,
Fuying,28.862601,120.71929499999999,China,
Kangping,42.739167,123.34944399999999,China,
Lop,37.07403,80.182314,China,
Laojiezi,26.864611,103.137123,China,
Jiezi,26.789348999999998,102.99189399999999,China,
Longnan,24.9,114.78333300000001,China,
Guyang,28.613853999999996,109.932528,China,
Chatang,29.242215,91.332169,China,
Yuanling,28.448611,110.402222,China,
Dashiqiao,40.637318,122.502508,China,
Mingren,45.593163,122.81879199999999,China,
Sangpi,28.933909999999997,99.79990699999999,China,
Toqsu,41.550278000000006,82.616667,China,
Jincheng,28.266484000000002,103.568381,China,
Xinjie,27.704334999999997,103.38036600000001,China,
Hongshan,47.975798,129.021989,China,
Xinan,23.154455,112.89343999999998,China,
Genhe,50.783333,121.516667,China,
Chaigoubu,40.667778000000006,114.41138899999999,China,
Xing’an,25.61964,110.642482,China,
Dongta,38.081401,106.34443999999999,China,
Daliyuan,27.183708000000003,103.486416,China,
Machali,34.933333000000005,98.233333,China,
Huayuan,33.468803,114.873144,China,
Huolu,38.080556,114.29611100000001,China,
Shuangcheng,27.24,119.894444,China,
Bainang,29.109,89.2589,China,
Sanjiang,31.348135,118.36131499999999,China,
Gongcheng,24.833333,110.816667,China,
Zhuyang,30.736741,107.201155,China,
Xingfeng,39.729652,116.33660800000001,China,
Shengli,40.118179,116.642949,China,
Beiyuan,39.903616,116.64667,China,
Gongchen,39.727956,116.137555,China,
Gulou,40.369972,116.83352,China,
Binhe,40.133466999999996,117.108519,China,
Qusum,29.06574,92.193042,China,
Linping,30.4225,120.29722199999999,China,
Jishi,35.84613,102.48170999999999,China,
Changpu,26.575844,110.107854,China,
Huaiyang Chengguanzhen,33.733333,114.88333300000001,China,
Huaiyuan Chengguanzhen,32.958933,117.16565800000001,China,
Sunwu,49.417489,127.315503,China,
Yaodu,30.1,117.016667,China,
Xiangyang,26.759912,103.253947,China,
Jiecun,27.224369,102.92283,China,
Pingquan,41.0025,118.68416699999999,China,
Zhifang,30.35,114.316667,China,
Chengxiang,28.552621000000002,102.168201,China,
Bayan Huxu,45.15,121.4,China,
Topterek,47.434028999999995,85.871134,China,
Chengzhong,22.168236,107.007296,China,
Zhanqian,46.800109,130.375466,China,
Qiaonan,46.803609,130.358047,China,
Enle,23.960493,101.082649,China,
Enjiang,27.321775,115.429249,China,
Jinzhu,29.041863,100.29478399999999,China,
Xagmakajor,31.4944,82.3324,China,
Dongjie,26.088225,119.29448899999998,China,
Qagan Us,36.397194,98.012224,China,
Hengshui,25.7,114.316667,China,
Guanshan,37.8081,113.59700000000001,China,
Pingdingbu,41.665278,115.697778,China,
Maoming,21.65,110.9,China,
Jinyuan,37.726944,112.47083300000001,China,
Gangba,28.2166,88.4743,China,
Yuquan,40.44259,113.974422,China,
Tianzhou,23.778613,106.89717900000001,China,
Fuji,29.148188,105.37391299999999,China,
Hailin,44.571486,129.385387,China,
Lanjiang,29.215111,119.46121399999998,China,
Sanchahe,44.963063,126.01531899999999,China,
Nanjian,25.048011,100.532235,China,
Nanjiang,32.35389,106.83238,China,
Dongzhen,22.379713,110.938854,China,
Leicheng,20.915577,110.083708,China,
Gabasumdo,35.258901,100.549944,China,
Xiangkou,29.3305,107.73700000000001,China,
Chengjiang,26.801709000000002,114.89978,China,
Xinhualu,34.396334,113.72466200000001,China,
Yongchang Chengguanzhen,38.270532,102.020174,China,
Jiezishang,26.989365999999997,103.344716,China,
Sanguanzhai,27.107657,103.256575,China,
Huangmei,30.192346999999998,116.02495900000001,China,
Peicheng,34.736111,116.924722,China,
Dongtai,32.852311,120.309472,China,
Niupizhai,28.111521000000003,104.381411,China,
Wuzhong,37.9867,106.20100000000001,China,
Bayan Hure,49.5,119.516667,China,
Rizhao,35.395793,119.53216599999999,China,
Guangming,28.310197,102.41189200000001,China,
Jinggan,34.53,108.834167,China,
Shengli,37.462708,118.491653,China,
Qitai,41.549444,113.53388899999999,China,
Kuiju,36.853611,119.390833,China,
Hongqiao,26.768369,112.10813600000002,China,
Baixi,28.699702000000002,104.549173,China,
Shuanghejiedao,30.374476,106.772655,China,
Meicheng,26.215278,118.86111100000001,China,
Mêdog,29.313285999999998,95.307414,China,
Jiantang,27.822442,99.769288,China,
Yunhe,26.553079999999998,100.193823,China,
Anxiang,29.4,112.15,China,
Guye,39.730543,118.440849,China,
Guyi,25.777778,109.600278,China,
Guoyang Chengguanzhen,33.505502,116.230795,China,
Jin’an,32.639410999999996,103.596829,China,
Jinbi,25.708551999999997,101.336794,China,
Shangba,27.629587,103.304472,China,
Dabancheng,43.358334,88.320038,China,
Gaohe,30.741731,116.842592,China,
Gengma,23.523251000000002,99.378602,China,
Hoxut,42.258611,86.857778,China,
Xianfeng,44.575032,129.602552,China,
Xiangyang,44.587993,129.579772,China,
Xinguan,39.455271999999994,111.53001100000002,China,
Shimen,25.894787,99.429355,China,
Shuangzhong,29.742960999999998,116.22426000000002,China,
Xiangyang,37.531571,121.39388400000001,China,
Xin Bulag,42.2375,113.83638899999998,China,
Xiguan,33.866667,115.46666699999999,China,
Jinshan,41.033491,110.05204599999999,China,
Jinrongjie,39.912217,116.356154,China,
Chaowai,39.918119,116.432425,China,
Nan’an,23.031360999999997,112.451076,China,
Linquan Chengguanzhen,33.085057,115.290231,China,
Qingnian,36.840325,115.711828,China,
Uliastai,45.55,116.83333300000001,China,
Dong’an,46.594049,125.078779,China,
Fengxian,30.918678999999997,121.456554,China,
Zequ,35.036606,101.46615899999999,China,
Qinjiang,26.329938000000002,116.33466899999999,China,
Amgalang,48.25,118.2,China,
Ri’ngoin,29.605,89.005,China,
Xuhui,31.195944,121.44708999999999,China,
Pingshan,25.519848,102.47580699999999,China,
Jiuchenggong,34.678684000000004,107.78757900000001,China,
Sanma,36.196666,115.07618500000001,China,
Nanchangshan,37.930493,120.72908400000001,China,
Wanghailou,39.159544,117.20338400000001,China,
Duji,33.997654,116.82840300000001,China,
Niangxi,27.308563,111.431859,China,
Cuijiang,26.263215000000002,116.64990900000001,China,
Nangxian,29.047007,93.087948,China,
Junyang,28.416666999999997,115.36666699999999,China,
Yunxian Chengguanzhen,32.831292,110.808749,China,
Aihua,24.416667,100.1,China,
Xiushui,38.103787,113.38865,China,
Wutong,30.632875,120.560805,China,
Yanta,34.206359,108.952398,China,
Zhaosu,43.122778000000004,81.07583299999999,China,
Baicheng,41.773889000000004,81.868889,China,
Zhengzhou,34.757778,113.64861100000002,China,
Fugou Chengguanzhen,34.066666999999995,114.38333300000001,China,
Wenping,27.193062,103.5273,China,
Fuyu,47.79756,124.45730900000001,China,
Daban,43.533333,118.66666699999999,China,
Tekes,43.190278,81.777778,China,
Fengyi,31.684116999999997,103.853818,China,
Fengyang Fuchengzhen,32.879692999999996,117.544652,China,
Fengyi,28.5537,107.439,China,
Xianghe,32.090882,118.25001,China,
Shiquanhe,32.501245000000004,80.097577,China,
Yinying,37.936944,113.5575,China,
Puxi,35.195833,114.685,China,
Yong’an,31.020560999999997,109.45871299999999,China,
Yong’an,25.98,117.364167,China,
Taihe Chengguanzhen,33.165518,115.648859,China,
Meishan,31.729135,115.91240900000001,China,
Mucheng,35.095556,113.39,China,
Wenfeng,27.198994,115.119628,China,
Yangjiaping,29.505118,106.501347,China,
Shengli,37.984253,106.19658899999999,China,
Andongwei,35.100352,119.33343899999998,China,
Jizhou,27.114714000000003,114.979545,China,
Hobor,41.27154,112.62663,China,
Bayan Hot,38.838611,105.66861100000001,China,
Guangming,45.333333,122.78333300000001,China,
Zijin,33.289167,111.47444399999999,China,
Quanzhou,25.944595,111.036395,China,
Wuma,28.017306,120.665948,China,
Helie,31.521403000000003,120.289615,China,
Gartog,29.684504999999998,98.594732,China,
Mengjin Chengguanzhen,34.8269,112.431292,China,
Lankao Chengguanzhen,34.832939,114.807177,China,
Anyang,23.937964,108.097654,China,
Guyong,26.730833,117.468333,China,
Galutu,38.600864,108.847421,China,
Aletengxire,39.57993,109.75821,China,
Yuanshan,24.369588,114.48961899999999,China,
Hong’an,47.205544,123.62524199999999,China,
Nanjie,38.954617,100.472369,China,
Xingpinglu,36.727517999999996,104.81379100000001,China,
Nanzhou,29.359551,112.402433,China,
Tarrong,29.416666999999997,90.25,China,
Zhangcheng,25.846763,118.936922,China,
Huaicheng,23.919521,112.17629,China,
Shuangfengqiao,29.718590000000003,106.627117,China,
Youganning,34.735644,101.611409,China,
Chujiang,29.5771,111.363,China,
Shilu,31.311687,120.594094,China,
Shangpa,26.919478,98.95158,China,
Ma’anshan,31.685787,118.51007800000001,China,
Qianling,28.711871999999996,109.645969,China,
Qira,37.028472,80.802867,China,
Hede,33.772197,120.261756,China,
Shanzidi,26.553843,103.260448,China,
Longshan,40.320155,116.629085,China,
Luhua,36.331389,113.22444399999999,China,
Daxing,22.969162,102.40610600000001,China,
Jinshan,41.916667,118.66666699999999,China,
Jinshan,25.115079,102.098325,China,
Ulan Hua,41.513056,111.696389,China,
Bayinsai,39.500221,106.720205,China,
Quyang,26.57507,109.63808,China,
Zhicheng,31.005405,119.904882,China,
Yongxing Chengguanzhen,26.124082,113.12851699999999,China,
Yangxin,37.644721999999994,117.57666699999999,China,
Qincheng,27.212702,116.53008200000001,China,
Zongyang,30.698889,117.204167,China,
Nanhaoqian,41.068056,113.960278,China,
Donghua,35.2152,106.65299999999999,China,
Donghuang,28.332966,106.215567,China,
Shangli,27.8771,113.792,China,
Weichanglu,37.180725,119.94216599999999,China,
Qajortêbu,30.933333,88.633333,China,
Pingchuan,25.094529,116.096011,China,
Zhenyang,32.603611,114.38305600000001,China,
Guting,34.998713,116.6619,China,
Laodianzi,26.930823999999998,103.292171,China,
Xincheng,35.875,111.435278,China,
Yuzhong Chengguanzhen,35.842778,104.1125,China,
Jiangkou,31.565062,107.097356,China,
Temuli,27.707946999999997,102.807684,China,
Tantou,28.283333000000002,104.266667,China,
Luojiang,31.304971000000002,104.504837,China,
Xunyi Chengguanzhen,35.11732,108.312754,China,
Xun Xian Chengguanzhen,35.664727,114.534581,China,
Qingping,34.536564,113.37526499999998,China,
Qonggyaixoi,29.027701,91.682682,China,
Huamachi,37.785198,107.403221,China,
Xiaopu,25.239166,111.316644,China,
Nanchang,28.683333,115.88333300000001,China,
Nanchangshan,37.915222,120.73246499999999,China,
Tiandiba,27.701782,103.248056,China,
Kaijiang,31.039590000000004,104.674476,China,
Bayan Gol,40.3,106.983333,China,
Zishui,32.007727,114.901078,China,
Guangrao,37.052861,118.39909899999999,China,
Baicheng,33.386389,114.015833,China,
Machang,26.1079,104.268022,China,
Jinghai,38.933735,116.92698700000001,China,
Hutang,31.715815000000003,119.944576,China,
Xidu,26.956288,112.36828500000001,China,
Louqiao,28.010614,120.63218300000001,China,
Hejiang,28.811609999999998,105.83358700000001,China,
Ganzi,31.627439000000003,99.99413100000001,China,
Dongxing,45.360884000000006,130.786789,China,
Huanggang,30.451434000000003,114.870347,China,
Tantang,23.136844,109.41313999999998,China,
Zhoushan,30.010754,122.204649,China,
Shayang,30.717839,112.60576599999999,China,
Nanzhao,25.222217999999998,100.303444,China,
Longjing,42.771389,129.423333,China,
Dêqên,29.666666999999997,91.35,China,
Nanzhao Chengguanzhen,33.492492,112.427228,China,
Nanzhao,23.719898,117.171029,China,
Mali,23.126215,104.740898,China,
Dengtalu,36.138605,114.10658899999999,China,
Dage,41.198889,116.644167,China,
Dazhasi,33.577954,102.964115,China,
Tangxiang,29.702259,105.72363100000001,China,
Shima,24.446469,117.812155,China,
Shuangshipu,33.917054,106.52466399999999,China,
Xia’er,29.005934999999997,101.514394,China,
Longde Chengguanzhen,35.6125,106.11666699999999,China,
Hengshan,31.41238,116.319351,China,
Huoqiu Chengguanzhen,32.354727000000004,116.293898,China,
Leping,28.966666999999998,117.11666699999999,China,
Beidajie,31.585283,120.290044,China,
Hekou,22.538505999999998,104.01109,China,
Aral,40.541835999999996,81.26566,China,
Bamiantong,44.917377,130.520001,China,
Tiandeng,23.126576,107.09369299999999,China,
Guangzhoulu,38.499148,102.168089,China,
Yunyang,31.995628000000004,119.56463500000001,China,
Ziketan,35.586209999999994,99.98790100000001,China,
Linli,29.45,111.65,China,
Lufeng,27.909444,110.58583300000001,China,
Jinsha,32.089817,121.073546,China,
Tiexianxi,27.911928999999997,103.889386,China,
Yangshuo,24.784414,110.47513500000001,China,
Jinxiang,35.070381,116.32385900000001,China,
Wangkui,46.832831,126.47767900000001,China,
Qiaowa,27.930790999999996,101.277812,China,
Xincheng,35.3,111.66416699999999,China,
Ramai,29.244727,90.847686,China,
Qianguo,45.117115000000005,124.856761,China,
Pingle,24.645225,110.64306100000002,China,
Jiujiang,29.733333000000002,115.983333,China,
Guiyang Chengguanzhen,25.733334,112.745892,China,
Zhenyuan Chengguanzhen,35.6775,107.196389,China,
Zhenzhou,32.280342,119.16998999999998,China,
Wenlan,23.360024,103.43684,China,
Yuping,22.976933,103.710848,China,
Rangke,32.267781,100.97908000000001,China,
Aratürük,43.249182,94.694303,China,
Taicheng,38.731017,113.22800500000001,China,
Bügür,41.773889000000004,84.244167,China,
Xuri,47.72685,128.89994099999998,China,
Binhu,32.030085,118.75767900000001,China,
Licheng,31.428127000000003,119.48353300000001,China,
Kaiyun,27.213510999999997,112.855995,China,
Yanliang,34.659177,109.22921000000001,China,
Anling,34.108899,114.16983300000001,China,
Xingcheng,24.148297,115.72272099999999,China,
Wenxian Chengguanzhen,32.947124,104.681387,China,
Juye,35.394721999999994,116.088333,China,
Namling,29.685270000000003,89.095559,China,
Namka,29.65,90.983333,China,
Zhenping Chengguanzhen,33.033136999999996,112.23320600000001,China,
Xiangdong,27.652071000000003,113.724065,China,
Shahe,39.14165,100.17836,China,
Tongchuan,34.898799,108.950562,China,
Rifeng,27.297283,116.911074,China,
Yunxixian Chengguanzhen,32.98276,110.42305800000001,China,
Yunxi,31.226399,105.386137,China,
Tuojiang,27.954717,109.567975,China,
Tuojiang,25.186667,111.57166699999999,China,
Jianchang,27.558312,116.639779,China,
Emin,46.525738,83.633245,China,
Niushan,34.523523,118.764951,China,
Yêndum,30.657215,97.5731,China,
Dadukou,26.547902,101.705386,China,
Nanpi,38.033333,116.7,China,
Lianhe,47.133333,129.27426200000002,China,
Liaogao,28.17,109.195,China,
Gucheng Chengguanzhen,32.266042999999996,111.634759,China,
Wuxi,26.5844,111.859,China,
Hezhang,27.122221999999997,104.723889,China,
Hezheng Chengguanzhen,35.429986,103.357254,China,
Suonan,35.666531,103.39791899999999,China,
Ziyuan,26.036667,110.640556,China,
Jiekou,23.549916,113.58099299999999,China,
Lindong,43.983333,119.183333,China,
Rongmei,29.893333000000002,110.02611100000001,China,
Xinmian,29.239922999999997,102.37208100000001,China,
Longcheng,29.899115999999996,116.55105400000001,China,
Fucheng,36.146845,112.23351100000001,China,
Wuxue Shi,29.915253000000003,115.41431899999999,China,
Fuliang,29.376389,117.24666699999999,China,
Guangrao,37.259691,118.46344599999999,China,
Shijiao,23.869486,113.5284,China,
Dazhe,24.575564,115.89183500000001,China,
Dazhong,33.199728,120.45780500000001,China,
Jiangpu,32.06149,118.623995,China,
Jiahe Chengguanzhen,25.559362,112.363519,China,
Gutao,37.2025,112.17805600000001,China,
Xunzhong,25.494313000000002,118.238854,China,
Kumul,42.827185,93.526587,China,
Huazhou,34.515225,109.757589,China,
Dingcheng,32.127221999999996,115.03944399999999,China,
Yanshou,45.453244,128.326784,China,
Shancheng,26.900532000000002,117.16311499999999,China,
Qingquan,38.793119,101.08868299999999,China,
Longcheng,34.184481,116.950767,China,
Longchuan,25.161522,101.29418199999999,China,
Xiasima,27.494024,88.952957,China,
Qitai,44.027884,89.579803,China,
Dajie,24.296228,102.750637,China,
Gongjing,29.347478999999996,104.711569,China,
Zhugang,28.138321,121.22621299999999,China,
Shuimogou,43.828563,87.638204,China,
Leiyang,30.120431,116.682925,China,
Caohe,30.2297,115.43346100000001,China,
Racaka,31.4,96.516667,China,
Shuimo,27.301949,103.414327,China,
Qishan,29.844307,117.71937199999999,China,
Danzhu,36.124505,112.86101399999998,China,
Gyêgu,33.005866,97.01011899999999,China,
Lizhi,29.703166999999997,107.395206,China,
Guantao,36.540991999999996,115.28292900000001,China,
Chonglong,29.780617,104.852242,China,
Linjiang,25.051671,116.420302,China,
Wuquan,33.44408,113.57089599999999,China,
Shangpai,31.745649,117.161093,China,
Gulou,26.086531,119.297977,China,
Xiangfeng,29.507613,109.402662,China,
Xinjia,37.6574,120.485,China,
Qinhong,32.011346,118.79655100000001,China,
Fangsong,31.032853000000003,121.18943300000001,China,
Zhaobaoshan,29.969496999999997,121.687529,China,
Qianquan,30.871258,114.37258,China,
Yankou,30.351153000000004,106.28669199999999,China,
Haicheng,22.975326000000003,115.33179399999999,China,
Haidian,39.990638,116.288684,China,
Jiangna,23.609196,104.37312,China,
Taihe,23.735355,112.977823,China,
Nan’an,25.399773,114.362182,China,
Gaoyao,23.024318,112.445549,China,
Zhangwan,32.083264,112.16666699999999,China,
Guhan,36.535466,113.02528000000001,China,
Luoshan Chengguanzhen,32.203185,114.509418,China,
Danxi,29.474721999999996,121.86555600000001,China,
Xincheng,33.633333,115.183333,China,
Zhaoyu,37.355278000000006,112.316667,China,
Dabu,24.667388,109.23546699999999,China,
Magitang,35.938590999999995,102.02968100000001,China,
Nanpiao,41.098218,120.747923,China,
Mingzhou,36.976098,115.256626,China,
Chuansiba,28.319645,104.129582,China,
Xincheng,39.986771000000005,112.46135100000001,China,
Zhonghe,28.450490000000002,108.989015,China,
Guanyang,25.495226000000002,111.13486599999999,China,
Lin’an,23.602549,102.830922,China,
Heyin,36.044082,101.428737,China,
Hejing,42.316389,86.382778,China,
Gecheng,31.948564,108.66073200000001,China,
Gêding,29.366667,88.25,China,
Qiaoxu,22.95616,109.76071999999999,China,
Lincheng,19.907778,109.685833,China,
Miyang,24.404167,103.442778,China,
Baiyang,35.8511,106.639,China,
Fulilu,36.101677,103.61573299999999,China,
Shahejie,29.607940000000003,115.88720500000001,China,
Weichang,41.944722,117.748056,China,
Liangdang Chengguanzhen,33.909721999999995,106.302222,China,
Zhangfeng,24.220852,97.786834,China,
Qianyang Chengguanzhen,34.642084999999994,107.130187,China,
Mengmeng,23.465021,99.80206,China,
Sanhe,36.5641,105.639,China,
Xingguo,26.326078000000003,115.34716100000001,China,
Tieyingzi,41.77861,119.879849,China,
Mositai,45.535385,119.666983,China,
Tongchuan,31.094069,105.08731200000001,China,
Nongchangbalian,36.365631,109.622404,China,
Longcheng,24.898273,102.79965200000001,China,
Qianqiu,34.7423,111.87200000000001,China,
Tongcheng,35.354679,111.216078,China,
Xucheng,20.329167,110.167116,China,
Xuyang,29.459414000000002,104.41946999999999,China,
Wenbi,39.387396,111.191154,China,
Fenghua,29.656284000000003,121.406397,China,
Jiuquan,39.743183,98.517363,China,
Tengyue,24.994923,98.512759,China,
Tokkuztara,43.466667,82.148889,China,
Dongyang,29.267778000000003,120.225278,China,
Gulü,32.743889,114.97611100000002,China,
Neihuang Chengguanzhen,35.950833,114.902222,China,
Pingluo Chengguanzhen,38.903772,106.541284,China,
Fenggang,27.545659000000004,116.214565,China,
Heshan,28.5825,112.350278,China,
Gyigang,28.666666999999997,97.516667,China,
Mianchi Chengguanzhen,34.754166999999995,111.75944399999999,China,
Xoixar,27.903000000000002,91.90299999999999,China,
Wansheng,28.962905,106.92844199999999,China,
Wanshan,27.5232,109.206,China,
Ningshan Chengguanzhen,33.331531,108.306854,China,
Luocheng,30.980214,104.280808,China,
Luocheng,25.032314000000003,118.794951,China,
Yuncheng,35.598333000000004,115.934722,China,
Xicheng,40.110556,114.15888899999999,China,
Yongqing,34.748056,106.126944,China,
Xilin,47.476055,129.30369299999998,China,
Xinning,35.495057,107.92038000000001,China,
Yutan,28.258306,112.56048500000001,China,
Beichengqu,40.439444,113.15361100000001,China,
Jishan,30.921494,118.33016599999999,China,
Nanggarzê,28.971426,90.397,China,
Dezhou,27.408089,102.180006,China,
Dianbu,31.873084000000002,117.45803000000001,China,
Fengtai,39.847571,116.272274,China,
Xiuwu Chengguanzhen,35.231111,113.438056,China,
Dingbian,37.592657,107.59427600000001,China,
Rongjiawan,29.15,113.10243500000001,China,
Dongting,31.584929,120.36681000000002,China,
Shiqiao,27.981949,120.559174,China,
Jiangguanchi,34.128215000000004,113.80681399999999,China,
Gaoyou,32.789334000000004,119.44181999999999,China,
Xin’an,34.375833,118.345,China,
Xin’an Chengguanzhen,34.7175,112.13555600000001,China,
Xin’an,32.43799,118.40888000000001,China,
Xingfulu,43.782455999999996,87.636824,China,
Kunyang,33.62,113.345,China,
Weiyuan,23.468313000000002,100.683536,China,
Zhangjiachuan,34.987561,106.20902099999999,China,
Qingyuan,35.136739,104.222103,China,
Zhonghechang,28.153796000000003,104.098355,China,
Xarlung,29.9,93.3,China,
Shaliuhe,37.326,100.134394,China,
Beijinglu,43.834449,87.57652399999999,China,
Luanchuan Chengguanzhen,33.7808,111.613,China,
Hekou,28.315853000000004,117.70843,China,
Qinghua,35.165,113.06166699999999,China,
Qiaozhuang,32.590256,105.233427,China,
Lingcheng,33.537659000000005,117.533569,China,
Lingcheng,22.423166000000002,109.293034,China,
Taihe,30.871229,105.384542,China,
Huojia Chengguanzhen,35.265556,113.65055600000001,China,
Shawan,29.411165000000004,103.54326999999999,China,
Gaotai Chengguanzhen,39.344557,99.800152,China,
Chang’an,34.151111,108.945,China,
Zangkaxa,33.712936,80.376823,China,
Zhuji,29.718765,120.242333,China,
Taozhou,30.906407,119.40864599999999,China,
Wanhechang,27.775928000000004,103.50945899999999,China,
Nanhang,47.314690999999996,123.947956,China,
Jianshe,31.215937,98.82867900000001,China,
Xiasi,32.289977,105.51325600000001,China,
Songyuan,27.621667,119.05916699999999,China,
Songyuan,27.527299,118.776568,China,
Zhangjiakou Shi Xuanhua Qu,40.610278,115.044722,China,
Lingquan,36.999488,110.844001,China,
Qili,30.199059000000002,117.477985,China,
Huishi,35.691964,105.048579,China,
Wenchang,31.055113000000002,116.95056399999999,China,
Renhe,26.499263,101.738605,China,
Xilinji,52.990626,123.235221,China,
Tongshan,34.180454,117.15706999999999,China,
Xuyong,28.169918,105.43452099999999,China,
Shuangling,28.024755,120.602097,China,
Liulinzhou,29.456389,113.010278,China,
Leping,37.61469,113.664994,China,
Tancheng,25.508077,119.807223,China,
Tancheng,34.6152,118.338,China,
Yuecheng,28.641574,102.508696,China,
Jinping,24.433745000000002,100.81989,China,
Jinping,24.030539,104.227025,China,
Jinhe,22.766667,103.25,China,
Jinping,35.314351,107.02923500000001,China,
Dongkou,27.052725,110.536102,China,
Chicheng,30.779356,105.71213600000002,China,
Shanhaiguan,40.0025,119.74888899999999,China,
Fengxiang Chengguanzhen,34.523009,107.391267,China,
Akqi,40.941524,78.44379,China,
Cuifeng,36.845166,111.781724,China,
Wangyue,28.2359,112.917,China,
Pingma,23.637432999999998,107.1014,China,
Pingnan,23.542175,110.38945700000001,China,
Lingcheng,35.534,116.91799999999999,China,
Gyitang,28.433333,92.45,China,
Xianshui,30.991453999999997,101.127012,China,
Sankoutang,27.912728,104.95046799999999,China,
Yushan,31.3835,120.95200000000001,China,
Jicheng,37.063587,112.95769399999999,China,
Mulan,45.947148,128.037064,China,
Jincheng,31.744218,119.57415800000001,China,
Ulan,43.6475,111.97666699999999,China,
Meiyuan Xincun,32.054210999999995,118.792753,China,
Rucheng,32.388333,120.555278,China,
Rucheng Chengguanzhen,25.536407,113.715469,China,
Fendou,45.212348999999996,130.902535,China,
Yulong,33.383239,120.13058000000001,China,
Sangyuan,37.625599,116.38259199999999,China,
Zhenlai,45.849548999999996,123.297296,China,
Shunling,25.591667,111.930278,China,
Gangsha,30.976999999999997,81.2875,China,
Nanle Chengguanzhen,36.076162,115.19905200000001,China,
Fengtai Chengguanzhen,32.708248,116.729557,China,
Bashan,27.76823,116.05017,China,
Luoning Chengguanzhen,34.387778000000004,111.655833,China,
Qindu,34.341862,108.70823700000001,China,
Weicheng,34.331395,108.71691000000001,China,
Damxoi,28.466666999999998,91.55,China,
Lanyi,38.71983,111.597828,China,
Guiping,23.393359,110.07436899999999,China,
Hancheng,32.518611,112.352222,China,
Luyuan,34.535955,109.085081,China,
Laxi,31.921246999999997,94.047569,China,
Weiyuan,36.853165000000004,101.991686,China,
Doushaguan,28.047971,104.127153,China,
Yaofeng,35.138611,111.212222,China,
Guankou,28.158609000000002,113.62708700000002,China,
Yuhai,36.981291999999996,105.90606299999999,China,
Ning’an,37.497526,105.676502,China,
Jinzhong,26.375946999999996,103.306391,China,
Bayan Tohoi,49.133333,119.733333,China,
Xiedian,35.428162,110.811807,China,
Jinjiazhuang,31.720121000000002,118.489534,China,
Muping,30.370445,102.812228,China,
Dongtaicun,42.0716,119.421829,China,
Chongwen,35.774910999999996,113.250786,China,
Mabai,23.012792,104.450813,China,
Duru,28.5255,107.887,China,
Khuma,51.716667,126.63333300000001,China,
Taikang Chengguanzhen,34.066666999999995,114.86666699999999,China,
Meijiang,26.475833,116.015,China,
Zhangjiang,28.911033000000003,111.479904,China,
Chengnan,23.272172,116.60501599999999,China,
Dingchang,36.763056,112.68722199999999,China,
Qinting,27.124121999999996,113.949017,China,
Longgang,35.689413,112.15798000000001,China,
Laofangzi,26.671649,103.188253,China,
Ducheng,23.242116,111.52840400000001,China,
Yunzhong,39.827073,113.096221,China,
Song Xian Chengguanzhen,34.134722,112.0825,China,
Songyang,25.325112,103.029815,China,
Xiwai,31.216815000000004,107.475249,China,
Jia Xian Chengguanzhen,33.968333,113.208056,China,
Xiayang,26.488851,113.76796100000001,China,
Lingcheng,37.331327,116.569529,China,
Lingxi,29.005,109.84472199999999,China,
Yantan,29.273962,104.873801,China,
Shangcheng Chengguanzhen,31.795278000000003,115.40111100000001,China,
Mizhou,35.994721999999996,119.3975,China,
Guhuai,32.958599,114.6255,China,
Pingyuan,24.736421,97.91358100000001,China,
Longhua,47.338471999999996,123.97918700000001,China,
Chengxiang,31.447778000000003,121.09388899999999,China,
Miluo Chengguanzhen,28.810702000000003,113.06616100000001,China,
Nanwai,31.204741,107.50363300000001,China,
Zito,30.73893,95.83613299999999,China,
Wenchang,31.636255,105.155024,China,
Zitong,30.178196000000003,105.82991399999999,China,
Yakou,33.296486,113.52351399999999,China,
Puyang,29.456785999999997,119.888723,China,
Pucheng,36.413610999999996,111.095,China,
Chengyang,27.089167,119.645278,China,
Maizhokunggar,29.833333000000003,91.733333,China,
Aitianba,28.166666999999997,104.166667,China,
Zhongwei,37.511286,105.19066699999999,China,
Yanjing,28.082278000000002,104.194971,China,
Yanjin Chengguanzhen,35.140833,114.18777800000001,China,
Wumahe,47.723475,128.792767,China,
Guoyuan Xincun,39.221866999999996,117.13018000000001,China,
Quxar,29.1,87.65,China,
Hexi,37.367197,97.363299,China,
Haicheng,40.851582,122.74753700000001,China,
Longtoushan Jiezi,27.124879999999997,103.384638,China,
Yuanba,32.325635,105.96177800000001,China,
Shuangjiang,26.154669000000002,109.71380500000001,China,
Shuangjiang,24.172609,102.40049,China,
Wangda,29.674447999999998,97.837358,China,
Dongguang,37.885093,116.532825,China,
Wancheng,18.804542,110.395123,China,
Xiayang,31.149672999999996,121.115881,China,
Luocheng,22.769527,111.568818,China,
Sujiaying,25.631582,102.58469000000001,China,
Guwei,34.71034,110.657096,China,
Xinxing,39.866939,124.12303600000001,China,
Xinhu,37.446422999999996,116.297269,China,
Menglang,22.56214,99.910289,China,
Menglie,22.559670999999998,101.86790400000001,China,
Dongcheng,21.882001000000002,112.010223,China,
Guixi,28.288572,117.213291,China,
Xinning,31.085146999999996,107.86508500000001,China,
Gaojiacun,25.25861,104.063378,China,
Xiangcheng,25.466872,100.562485,China,
Langchi,31.079517,106.56513999999999,China,
Tengzhou,23.388056,110.89116100000001,China,
Zhongyuanlu,35.768469,115.061326,China,
Napo Chengxiangzhen,23.479439000000003,105.791568,China,
Fengxian,34.703882,116.587167,China,
Basuo,19.093899,108.65456,China,
Yanghe,38.278518,106.247758,China,
Xincheng,34.263213,108.94953600000001,China,
Beilin,34.228458,108.91565700000001,China,
Huarong,30.533333000000002,114.733333,China,
Rongcheng,30.642813,117.835151,China,
Rongcheng,29.845046999999997,112.95144099999999,China,
Jieyang,23.528858,116.36415900000001,China,
Rongcheng,22.858416000000002,110.54643200000001,China,
Dongtundu,28.183708000000003,113.032095,China,
Guitang,28.139961,113.04246299999998,China,
Furong Beilu,28.237065,112.98076200000001,China,
Baofeng Chengguanzhen,33.870278000000006,113.065278,China,
Laojiezi,26.148702,102.55919899999999,China,
Xin’anjiang,29.474781,119.271476,China,
Baiyashi,26.38883,111.26213100000001,China,
Qiangezhai,36.963696999999996,115.37822800000001,China,
Yezhou,30.603693,109.72333400000001,China,
Chaotian,32.644625,105.88501399999998,China,
Xinshui,36.478388,110.755224,China,
Yingshouyingzi,40.551466,117.66155400000001,China,
Pingxiang,35.207905,105.250584,China,
Xigang,38.552580999999996,106.348049,China,
Wenxing,28.666666999999997,112.88333300000001,China,
Zhongmu Chengguanzhen,34.711453999999996,113.96558799999998,China,
Taohuajiang,28.523611,112.12527800000001,China,
Panlong,32.802222,114.019167,China,
Nanzheng Chengguanzhen,33.004521000000004,106.93466299999999,China,
Douhudi,30.060556,112.224167,China,
Huafeng,25.001667,117.5275,China,
Juanshui,29.303065000000004,113.886762,China,
Juancheng,35.561575,115.50133799999999,China,
Daming,36.286078,115.14355900000001,China,
Chaicun,37.932778000000006,112.47638899999998,China,
Sahuteng,32.894211,95.280878,China,
Debao Chengguanzhen,23.384709,106.57351799999999,China,
Rongjiang,25.662470000000003,114.75033700000002,China,
Wu’an,24.603873,117.74538899999999,China,
Languan,34.157537,109.314152,China,
Taoyang,35.401348999999996,103.853254,China,
Shanwei,22.781986,115.347498,China,
Qinhe,36.501389,112.324722,China,
Duchang,29.265999,116.18631,China,
Mainling,29.217675,94.213254,China,
Haiyang,29.786115999999996,118.176976,China,
Xinshi,31.047043,113.14098,China,
Shucheng Chengguanzhen,31.47448,116.95206499999999,China,
Wujiaqu,44.169631,87.534973,China,
Wujiashan,30.617023,114.13165900000001,China,
Qüxü,29.356375,90.732288,China,
Xinrong,40.2579,113.13600000000001,China,
Xinshan,25.137316000000002,115.387199,China,
Liujiaxia,35.934003999999995,103.318308,China,
Chongyang,33.259219,114.242043,China,
Liulin,37.453327,110.90188700000002,China,
Xibeijie,39.737853,98.518274,China,
Fan Xian Chengguanzhen,35.858135,115.500555,China,
Meilin,25.873085,115.010801,China,
Xiying,36.448793,115.294449,China,
Bukui,47.355028000000004,123.951719,China,
Min’an,29.4595,109.43700000000001,China,
Niya,37.065528,82.689328,China,
Yingshang Chengguanzhen,32.629453000000005,116.27013500000001,China,
Yanjiang,30.121083000000002,104.648106,China,
Tangdong,26.001877,113.25379299999999,China,
Puting,29.331290999999997,115.757465,China,
Zhongshu,25.027296,103.662975,China,
Zhongshu,24.516667,103.766667,China,
Beishan,45.816205,130.928327,China,
Luzhang,25.973091,98.82345,China,
Chengxiang,23.160961999999998,108.27758700000001,China,
Dongluqiao,36.681492999999996,115.340852,China,
Lechang,35.642013,111.467224,China,
Beidaihe,39.861373,119.41772399999999,China,
Baishan,23.713525,108.170927,China,
Dêngqên,31.411528999999998,95.58417800000001,China,
Jianshelu,34.7534,113.60600000000001,China,
Zhongzhou,30.29402,108.032963,China,
Lufu,24.760204,103.266471,China,
Luring,32.266667,84.2,China,
Lianfeng,25.704411999999998,116.721623,China,
Xinshancun,29.485998,106.478605,China,
Duolun,42.187121000000005,116.489094,China,
Yongle,33.264647,104.232782,China,
Lushi Chengguanzhen,34.048611,111.03277800000001,China,
Lushar,36.484163,101.56327900000001,China,
Luyang,33.735638,112.90508500000001,China,
Tongbai Chengguanzhen,32.364167,113.39638899999999,China,
Tuquan,45.403034999999996,121.604625,China,
Huangshan,26.826337,100.219063,China,
Kaifeng Chengguanzhen,34.757708,114.43726799999999,China,
Kaihua,23.368701,104.279996,China,
Zhaozhen,30.8563,104.43605600000001,China,
Bobai,22.270847,109.974329,China,
Xindu,33.339871,120.14594,China,
Zaindainxoi,31.85,93.666667,China,
Zagunao,31.446181,103.17661700000001,China,
Liyuan,29.395367999999998,110.15591299999998,China,
Naji,48.122166,123.459042,China,
Yangying,35.818048,115.948072,China,
Geji,32.395446,81.139718,China,
Nansan,23.795745,98.803972,China,
Zhong’an,25.666667,104.233333,China,
Chengzhen,40.479721999999995,115.267778,China,
Huarong Chengguanzhen,29.518890000000003,112.548368,China,
Goujie,25.742352,102.800833,China,
Donghegumiao,36.978642,115.108965,China,
Gufeng,26.908333000000002,118.981944,China,
Zhengdonglu,32.192783,119.4705,China,
Guyang,32.135376,119.44208799999998,China,
Dongsheng,30.573828999999996,103.921269,China,
Honggang,46.401239000000004,124.88322099999999,China,
Shuigou,26.938091999999997,103.039558,China,
Tongyang,29.670543,114.596943,China,
Tongxu Chengguanzhen,34.477222,114.45833300000001,China,
Nanjin,29.984968,106.26529099999999,China,
Lishan,31.857636,113.29505,China,
Qingyang,24.819778,118.574145,China,
Baohe,27.195815999999997,99.324833,China,
Jinjiang,19.728782,110.00851200000001,China,
Biru,31.483192,93.67741099999999,China,
Cuntan,29.602476,106.57055,China,
Zhangguizhuang,39.090201,117.30718999999999,China,
Changbai,41.416728000000006,128.190534,China,
Gulou,36.444140000000004,115.964177,China,
Dongcheng,29.152015000000002,107.10335,China,
Nanxi,28.842087,104.979577,China,
Dangchengwan,39.50011,95.040814,China,
Junlian,28.171057,104.511616,China,
Sanmao,32.239306,119.81536499999999,China,
Sicheng,24.405405,106.58153700000001,China,
Meilu,21.43412,110.77554599999999,China,
Liulin,34.589721999999995,103.50416700000001,China,
Jomda,31.496199,98.211714,China,
Pujiawan,26.185482999999998,102.291488,China,
Anren Chengguanzhen,26.714128999999996,113.26725800000001,China,
Daokou,35.563889,114.50583300000001,China,
Daojiang,25.496028,111.55146299999998,China,
Konggar,29.293888,90.987084,China,
Liangshan,30.674091999999998,107.793798,China,
Haishiwan,36.346276,102.857988,China,
Binhe,32.688333,112.8275,China,
Qamqênxoi,29.266666999999998,89.9,China,
Shuibian,27.608048999999998,115.326365,China,
Yanqing,40.46093,115.9715,China,
Yanqi,42.062043,86.56631999999999,China,
Tonghe,45.976101,128.742889,China,
Chengjiao Chengguanzhen,34.435833,104.030556,China,
Minquan Chengguanzhen,34.664494,115.13298999999999,China,
Sanlei,38.626389,103.08833299999999,China,
Lingbao Chengguanzhen,34.519721999999994,110.86444399999999,China,
Shacheng,40.391389000000004,115.511389,China,
Changhongjie,39.137271000000005,117.147475,China,
Qarqan,38.134071,85.529772,China,
Hanfeng,31.169459999999997,108.40310500000001,China,
Ningyang,35.770148999999996,116.805627,China,
Liupai,25.040001,107.173154,China,
Xiping,25.597838,103.796125,China,
Chikan,21.271164000000002,110.359058,China,
Baoyou,18.749318,109.17171599999999,China,
Longzhou,22.399670999999998,106.78966799999999,China,
Kunyang,24.667528,102.591898,China,
Daying,34.721771999999994,111.10294499999999,China,
Huaibin Chengguanzhen,32.463972999999996,115.40811699999999,China,
Xiaobailou,39.117663,117.205646,China,
Xincheng,28.01512,102.84233,China,
Jianshe,34.2175,113.76888899999999,China,
Lianzhu,23.408437,101.710284,China,
Lukou,27.702919,113.15202099999999,China,
Nêdong,29.243009999999998,91.772386,China,
Piqan,42.867499,90.204629,China,
Zhonghualu,35.605247,104.59668,China,
Gyaijêpozhanggê,33.85484,95.615408,China,
Nanhai,21.472504999999998,111.026835,China,
Yicheng,31.704721999999997,112.256111,China,
Zhongshan Donglu,34.379645000000004,107.14638300000001,China,
Pucheng Chengguanzhen,34.956106,109.584061,China,
Pubu,31.39625,90.00958,China,
Muxi,28.959645000000002,103.900865,China,
Chengdong,26.578611,118.738611,China,
Sangri,29.3,92.083333,China,
